Name,type,ratings,latitude,longitude,place_id
"La Laura"Fiambreria,shopping_mall,7,-31.4522664,-60.9354269,ChIJqzARKWATtZURvE5E8N6Tz4o
Establecimiento La LAURA,,18,-31.452317,-60.935399,ChIJyZmgXtkTtZUR5K7pVLbBV2E
Urbano Cortes Peluqueria Masculina,hair_care,5,-31.4525653,-60.9353773,ChIJEai6TCMTtZURuJINwB-8KMA
ALDANA BERTOLOTTI,clothing_store,0,-31.452559,-60.9353377,ChIJAVzE7GwTtZURnvMbFj3nN-E
Chapa y Pintura "Total Car´s",,0,-31.4522862,-60.9363442,ChIJy7XGvqUTtZURboMpkl0eZX8
Be'llos Panadería Artesanal,bakery,5,-31.4526349,-60.9353604,ChIJQayoTyYTtZURyqjQKLyN7Kk
Distribuidora Esperanza Productos Alimenticios,,2,-31.4523381,-60.9363599,ChIJDfb30xcTtZURluj9v7NERdw
Picotea,clothing_store,5,-31.4519213,-60.9362144,ChIJ5xyEpjwTtZURpMOYAi2ly50
Fapp - Feria Americana para Peques,clothing_store,66,-31.4512619,-60.93581,ChIJVdu4VoYTtZURCFBcOcvsO_g
VAGUITOS JUEGOS INFLABLES; ACUATICOS Y MECANICOS,,2,-31.4509483,-60.9359574,ChIJ-Z1NPNsTtZURS7ym14i0RpI
Consultorios TOTONI,,1,-31.4507316,-60.9358739,ChIJbZk4EEYTtZURxMoT8hs2xvY
autosusados.club,,1,-31.4505647,-60.9358234,ChIJj8aXsqkTtZURrHfuN5sA72U
Maurinik,bar,6,-31.4524239,-60.9349564,ChIJnZv1gocTtZURPiUAAsuPK1s
Hogar Limpio Hogar,home_goods_store,0,-31.453092,-60.9353342,ChIJxSix42oTtZURWd1H-tqnKLA
Salón del Reino de los Testigos de Jehová,,0,-31.4511009,-60.934925,ChIJFWq4Ut8TtZURaszHQ03CPS4
Marisa,clothing_store,1,-31.4505861,-60.9352146,ChIJgTqakjwTtZURXz56MdOGGug
HOGAR VIRGEN DEL ROSARIO DE SAN NICOLAS,lodging,0,-31.4505861,-60.9352146,ChIJW6MRc4YTtZURQ-L1y-uQ5KE
Hogar Virgen del Rosario de San Nicolas,,0,-31.4505875,-60.9352901,ChIJn2PLbA4TtZURF08B3PI7eY8
Registro Seccional 2 Esperanza,,33,-31.4506238,-60.9353451,ChIJ6fpxkjwTtZURIjR8wjtQ6D0
Cruzmar SRL,travel_agency,26,-31.4507949,-60.9348447,ChIJBy1NAz0TtZUR56o3lRQIoG8
Emisora la Ciudad SRL,,3,-31.4497452,-60.9349021,ChIJX6FdV_0RtZURMN5a0tw9HrI
Bunker Big Box,gym,16,-31.4497293,-60.935048,ChIJ3cXPXzwTtZURZ5KF__9E-uU
Flash1 Sonido e Iluminacion,,3,-31.4497652,-60.9353169,ChIJ3TqoYTwTtZURFST_dY5GRGw
Buril Joyeria Artesanal,jewelry_store,3,-31.4496816,-60.9351842,ChIJv_iU0boTtZURH4Dj5H8lf1M
FM 101.1 Ciudad,,8,-31.4497607,-60.9349068,ChIJQ9B1XzwTtZURbweszG5lFaY
RANDOM SPORT,clothing_store,1,-31.4497254,-60.9349152,ChIJkYIqdgoTtZURIkZ6PeMDYO8
Maskots,veterinary_care,2,-31.4496415,-60.9352849,ChIJ16jZNS0TtZUR3Mnsw4-QWOs
Estudio Jurídico Kröhling,lawyer,1,-31.449745,-60.934827,ChIJbUnuPV0HtZURHE23IChyDTE
Veterinaria Doble M,veterinary_care,71,-31.4502031,-60.9347691,ChIJU1WfCTwTtZURIcyAqoiX9JE
Artística IluminArte,book_store,6,-31.4499693,-60.9356422,ChIJk0AC1EITtZURQ7ghtlG6fx8
ANSES,local_government_office,60,-31.4492999,-60.9353176,ChIJhcQGZDwTtZURantKhCJl6xk
Arcoíris Pañalera,clothing_store,10,-31.4485801,-60.9352257,ChIJNVlzRowTtZURxEJyc8oMAdE
Rincon Criollo,grocery_or_supermarket,4,-31.4483954,-60.9351688,ChIJ21mbTTUTtZURvrqVt_wV874
Hugo R Walker,,2,-31.4487259,-60.9351845,ChIJ7-2LajwTtZUR0xTGQpebIJo
Accesorios Rossi Esperanza,,0,-31.4487144,-60.935267,ChIJR8rjajwTtZUR9R4bm91KSCw
BERESVIL REPUESTOS,car_repair,29,-31.4487144,-60.935267,ChIJBQOdAz0TtZURsYAmRI8nTp8
La Boutique de las artesanías,,0,-31.4487042,-60.935427,ChIJiXVbazwTtZURcpNOlGa3L8k
Engler Gas Repuestos,,4,-31.4481124,-60.935216,ChIJrZNMFjwTtZURlRLVyqRoGm0
Renovate Indumentaria,clothing_store,0,-31.4486446,-60.9356197,ChIJk0p6OWUTtZURnpUf82328gQ
Corralón 8 De Septiembre,,0,-31.4488431,-60.9354887,ChIJQTFXazwTtZURmn33KzGmknU
Ospedyc boca de expendio,,0,-31.4486406,-60.9356377,ChIJD1EVTmITtZURScUnwSB-0tU
Francisco Hessel E Hijos Sa,,0,-31.453283,-60.9347366,ChIJ3cFKBT0TtZURZuqB5hfi3Qo
MECANICA SCOTTI,car_repair,3,-31.4529571,-60.9346407,ChIJld6ASE4TtZURde3z61X14rw
Curso de Peluquería Canina,,0,-31.4527649,-60.9344461,ChIJtWIOAkwTtZURbnH-7ZX5el8
CAMPAGNOLO AUTOMOTORES,car_dealer,15,-31.4528422,-60.9341689,ChIJQRt0LyMTtZUR-dAF_PE1yIM
Aceites En Esperanza,,0,-31.453283,-60.9347366,ChIJKyVgOSMTtZURsTqjJ0Vy4ig
Sertec Servicio Tecnico,,29,-31.451833,-60.934353,ChIJBy1NAz0TtZURlWUnCNO-KNY
Peluqueria freak,hair_care,56,-31.4516385,-60.934537,ChIJy33hddwTtZURsTjU4GjDzCc
Osprera,,10,-31.4507321,-60.9344951,ChIJEwDP6DwTtZURVb7AR4Swcc4
Panificadora Castelli,bakery,38,-31.4507571,-60.9345296,ChIJ74nZ6DwTtZURWUZIsnOwYaA
El Siglo,clothing_store,1,-31.4498759,-60.9343132,ChIJVcrmEfITtZURRZoD3w3q-Uw
Signos,,0,-31.44982,-60.934565,ChIJp1Xwx3ITtZURaa55A_v0erk
Consultorios Lehmann,,1,-31.4499399,-60.9340253,ChIJPSDSYjATtZURX6vdk7EyoN8
Girl power,clothing_store,0,-31.4496398,-60.9344141,ChIJ7cTLGpgTtZURdqT3dC2AYRI
Plazoleta María Reina de la Paz,,1,-31.4497368,-60.9344465,ChIJrS1isPETtZURO3DJOmkphWA
Manjares,meal_takeaway+restaurant,120,-31.4489292,-60.9343784,ChIJZYYIVxETtZURWF9_a16A86I
Establecimiento La posta,clothing_store,0,-31.4489379,-60.9343811,ChIJKzDMHxwTtZURzDtaEW2AZqU
Monaco,clothing_store,19,-31.4487736,-60.9343132,ChIJQV9CTzwTtZURNaTOkD-a8j4
MAC Consultora,,0,-31.4488734,-60.934619,ChIJ561GRDwTtZUR3H2MBlkSB50
La Pinoteca Esperanza,furniture_store+home_goods_store,0,-31.4488456,-60.9346676,ChIJ2eXulNETtZUR_uzQoPkwgDE
Muebleria Massi Srl,furniture_store+home_goods_store,1,-31.4488456,-60.9346676,ChIJExITRDwTtZURuw2EtZ-bCp4
Fedele Fumigaciones Consulte Por Trabajos Especiales,,2,-31.4485474,-60.9342853,ChIJE8Btsj0TtZURJtk1S7SCbI0
Dakota,clothing_store,1,-31.4490088,-60.9341065,ChIJbRjdUTwTtZURg0V0Wsd6VbE
SanCor Salud Esperanza,,1,-31.4489502,-60.9339945,ChIJS9T3UTwTtZURn8ZMUcTlk-g
PRAD Arquitectura,,1,-31.4478553,-60.9342568,ChIJT81eMDwTtZURcUEd5rTHA_g
Sociedad de Bioquimicos del Dto Las Colonias,,5,-31.4481877,-60.9344626,ChIJ_zykMDwTtZURmgpvkZooDy0
Armeria Alpha,,14,-31.4480132,-60.9344567,ChIJpZYVOjwTtZURJ7oZTTiC3I8
Kinesióloga María Angélica Gilli,,3,-31.4479002,-60.9342188,ChIJAZ05aS8TtZURahUBaxOsc9A
Eres Mi Sol. Tienda Infantil.,,12,-31.448128,-60.934038,ChIJW-WGNjwTtZUR5rGXCcrg9es
Arena Y Cia,liquor_store,19,-31.4478395,-60.934703,ChIJDfb30xcTtZURVe7AG3DzmtU
Jinés Tiempo Libre,,8,-31.4473987,-60.9348332,ChIJLx_r0F4TtZURZzCo_Wa0WCA
Pastas Iris esperanza,grocery_or_supermarket,9,-31.4474951,-60.9348797,ChIJG496ITwTtZURcmFvGvkqVxI
El Almacén,grocery_or_supermarket,0,-31.4475195,-60.9348879,ChIJDbP2ioYTtZURseSpNF9dTxs
El almacén,storage,0,-31.4475195,-60.9348879,ChIJ4fExVgETtZURVplKa3Zzyb0
PAMI - INSSJYP,,34,-31.4477258,-60.9348317,ChIJm54SIzwTtZURW-5bNq5tvKI
Jos Van Tour,,8,-31.4463041,-60.9340701,ChIJBQOdAz0TtZURCm7JCAKj0-Y
La Ruta Hacia El Dorado,,0,-31.4531834,-60.9338866,ChIJPyAV2CITtZURUJh1Hl_4xTs
PETRO SANTAFESINA S.A,gas_station,0,-31.4529171,-60.9337805,ChIJDfb30xcTtZURUyGL6w-qwqY
MunarriZ,lodging,10,-31.4525681,-60.9337217,ChIJGynBKSMTtZURVJgLmahVbzc
Shell,gas_station,166,-31.452852,-60.9338585,ChIJdWSDKCMTtZURonUPmc1mNk8
casi todo polirubro,shopping_mall,0,-31.4526572,-60.9340104,ChIJGZZulpgTtZURhlZQ7hfyxLo
Equitop,,2,-31.4528421,-60.933313,ChIJZ3ivqh4TtZURktOZboRF53c
Imprenta y Sellos Graffiti,,12,-31.452334,-60.9334989,ChIJBQOdAz0TtZURyqaJ5eOvHn8
Tiendas Gangas,clothing_store,9,-31.4521315,-60.9335545,ChIJJcXE1CITtZURbCIWBvUR3n4
Academia Luluat,gym,10,-31.4519041,-60.9333647,ChIJAcJ0Kz0TtZURCA7BtcQfdBg
Geriatrico Renacer,,3,-31.451261,-60.9333018,ChIJWQewJT0TtZURtUry5egBmFs
Electronica A.M.,,0,-31.4513419,-60.9331794,ChIJSUcAAJgTtZURL3EvRX7-srE
Agencia Fortuna,,0,-31.4511165,-60.9332234,ChIJr8sXJD0TtZURk0SwdYKZ9fE
Esperanza Ink,,5,-31.4508191,-60.9338175,ChIJAbm-keATtZURU1RJ1K1aoF8
Jardin MATERNAL MIMITO'S,school,1,-31.4508191,-60.9338175,ChIJW3rP4DwTtZUR1_jX4Lly8aU
Consultorios Medicos San Juan,doctor,0,-31.44982,-60.9336916,ChIJ3cFKBT0TtZUR16luuYPkV40
Vinoteca Los Cortesanos,bar,115,-31.4490871,-60.933526,ChIJj52CrD0TtZURG5Lq8235Aq8
Jardin Maternal Mimitos,school,1,-31.449207,-60.9336362,ChIJD4eCXtATtZURoVC98YWGauM
Berlina,,0,-31.4492699,-60.9337593,ChIJdz9FdOATtZURHAdbm9funFA
Grupo Nasimbera,insurance_agency,6,-31.449181,-60.933465,ChIJiU5fRTwTtZURKvG348-km-8
Juventud,,0,-31.4491424,-60.9334585,ChIJkRqAqz0TtZURJw2BI-gNOcE
Sueños Suaves Blancos y más,home_goods_store,1,-31.4491981,-60.933975,ChIJq8kAiGETtZURtJTet3wTgn4
El 10 Salón Masculino,hair_care,117,-31.4489177,-60.933552,ChIJrapqrT0TtZURki1WTvK1LgE
Amelia Joyas,jewelry_store,3,-31.4494142,-60.9334413,ChIJa2eOXjgTtZURMenV_dhl2RE
CPN Carlos Alberto Correa & Asociados,accounting,0,-31.449199,-60.9332856,ChIJ8crYqz0TtZURTScK9q0WQII
Ideas de temporada,clothing_store,22,-31.4492941,-60.9332777,ChIJh5BfqT0TtZURdWzDTjhnNuI
VALKIRIA,clothing_store,2,-31.4483058,-60.9334732,ChIJt9UGtT0TtZURcli32hcTZrM
Laboratorio Análisis Clínicos Del Negro Silvia,,0,-31.4482289,-60.9338564,ChIJkU6ZrPwTtZURwxiyBAA91vE
Club Bocha Esperancino,bar,20,-31.4484008,-60.9333693,ChIJCy0lAzwTtZURrJuvtny1dh8
Ortopedia Kinen Sucursal Esperanza,shoe_store,3,-31.4484361,-60.9332977,ChIJ2yABtD0TtZURiOoSwpHvaj8
Ortopedias,,0,-31.4484401,-60.9332795,ChIJoQIAtD0TtZUR5IoBa9RcKW0
Gimnasio Sol Gym,gym,24,-31.4487169,-60.9333612,ChIJixymWF4TtZURMjUFemBtokc
E.E.S.O.P.I. N°2027 "José Manuel Estrada" (Secretariado),secondary_school+school,4,-31.4481178,-60.9333911,ChIJl91zyj0TtZURnhpuhyw3ezg
EstoyCerca.com.ar,grocery_or_supermarket,2,-31.4472465,-60.9337799,ChIJ3RQTRooTtZURgS6UQQ-gzQ0
Ministerio de Desarrollo Social,,3,-31.4473703,-60.9333162,ChIJvaoi0j0TtZUR7JuZZ9Xv2w8
CSC RADIO FM 106.5,,28,-31.4463726,-60.9337527,ChIJvxEnwhcTtZURrn3HcAyHEpY
Fresh Radio 101.5,,1,-31.4463739,-60.9337524,ChIJ3QhH0UgTtZURjXYNx1QXbqQ
Cuello & Asociados,,3,-31.4463542,-60.9339158,ChIJgwcYhj4TtZUR_YV4NTkPvBA
JP PRODUCTOS,,5,-31.4454137,-60.9338864,ChIJMWCJuk4TtZUREyK0ENy9TbQ
Dionisiaindumentaria,clothing_store,0,-31.4457232,-60.9333813,ChIJvQuEaIETtZUR_mvqgEQizJw
Atilra Seccional Esperanza Sindicato Industria Lechera,,1,-31.4527886,-60.932886,ChIJBy1NAz0TtZURYzAFzn6ZCt4
Agencia Blümen - Comunicación,,1,-31.4533465,-60.9327881,ChIJhfpa6CITtZURv92WEr03njw
Antigüedades Le Petite Marie,,4,-31.4527047,-60.9330098,ChIJveJ07E4TtZURDMVLf3WeuUA
Kaná biocosmetica Artesanal y local,,0,-31.453355,-60.932669,ChIJGTxVuysTtZURdNzhxsyqwuM
Cf Estudio - de Adrian Fontanini,,5,-31.4534482,-60.9328158,ChIJWwDs6CITtZUR86OS4AloHos
Agrimaq,,5,-31.4519775,-60.9329224,ChIJX6FdV_0RtZURHItvux1mU4E
An,,0,-31.4519818,-60.933024,ChIJ95fL0iITtZURL3cTUTW28YI
Caja de Ingenieria / APCE,,0,-31.4523536,-60.9325425,ChIJ7_PUyCITtZURLNTCwDK72OA
Body Center,hospital,30,-31.4509538,-60.9329662,ChIJB7J1AhYTtZURyHrsAJ_a0Uk
Polifer3D,,0,-31.4509256,-60.932927,ChIJDWWR9IgTtZURH3UtDuZCWEk
La Mansión,night_club,0,-31.451162,-60.9327335,ChIJEf9fOj0TtZUROpOZysA9c_A
Zapateria Saliern,shoe_store,0,-31.451082,-60.9325221,ChIJ2-WOOT0TtZUR2Iedev_oawY
Ferreteria Dany,hardware_store,31,-31.450247,-60.9329283,ChIJDfb30xcTtZUR0WnkGOhMn6A
Agustina Calzados,shoe_store,4,-31.4502241,-60.9331758,ChIJ6WGq4GoTtZURkSmyav0hA-4
Valkirias: Casa de comidas,meal_delivery,3,-31.4503271,-60.9329011,ChIJYxrJQGITtZURjtXLUIx6OOc
trama bb,clothing_store,2,-31.4493188,-60.9327695,ChIJ0yUvCD0TtZUR6REeI4oqdFg
Modas Axel,clothing_store,5,-31.4498155,-60.9328253,ChIJQRL6hvoTtZURpvtnTpvOw3U
Passerino Jose Enrique,,0,-31.4497134,-60.9326977,ChIJ1a_lDj0TtZURfPAxDuMDw8c
Wapa,,0,-31.4492161,-60.9327737,ChIJVXOYpz0TtZURB6-K15_7oDc
SUMIAGRO,,11,-31.4488374,-60.932575,ChIJHcTcoz0TtZURgm755mnEktA
SUMIAGRO ESPERANZA -STIHL-HONDA-JOHN DEERE,home_goods_store,5,-31.4488664,-60.9325318,ChIJAazwoz0TtZUR6QEAFSRyCUo
Los Iriondo casa-bar,bar,1203,-31.4482002,-60.9327244,ChIJ5ySsuz0TtZURORQsjK1Qlww
Instituto Pilates Park Esperanza,gym,0,-31.4484385,-60.9327138,ChIJ66uvuz0TtZURoxqG5I0j3PQ
Martin House,liquor_store,163,-31.4481793,-60.9330924,ChIJzSKztz0TtZUROep-MpZ5nJM
Ferreteria Avenida Todo Para el Campo Industria y Hogar,hardware_store,0,-31.4483148,-60.9328682,ChIJ3cFKBT0TtZUR272F5np6mdY
Teodolina Calzados,shoe_store,6,-31.4483079,-60.9328274,ChIJFVDzuT0TtZURGwUWQnSC4do
Panaderia y Confiteria Avenida,bakery,42,-31.4483233,-60.9328324,ChIJE4l6_qkTtZURTkwf1cGO39Y
Oficinas Selta SA,,0,-31.4483487,-60.9327249,ChIJqwibynQTtZURKGNjrHLDlgQ
Tienda Jasfer,clothing_store,0,-31.4483529,-60.9327068,ChIJQRoI1tsTtZURtjZd36W6LDg
Arrumacos,clothing_store,0,-31.4483586,-60.9326123,ChIJPc3suz0TtZUR2tMqSuDUr1s
Monpal Maderas SRL,clothing_store,0,-31.4483741,-60.9326173,ChIJ3cFKBT0TtZUR6_ChqwB5Kew
La Fiambreria.esp,grocery_or_supermarket,10,-31.4474048,-60.9330951,ChIJkyGukaITtZUR2HQbBETaxzw
Desayunos V.T.,restaurant,0,-31.4474433,-60.9328547,ChIJC8RpxT0TtZURUB3qj0cPX_Q
Norma G Paneiva,,0,-31.4475366,-60.9325912,ChIJIQESxD0TtZURuGJtHdtC26s
Imprenta San Cayetano,,2,-31.4466092,-60.9326769,ChIJ3cFKBT0TtZURuTEnfU5kr80
YPF LEURINO NEGRO Y DONNET SRL,,1,-31.44664,-60.9325054,ChIJtZdPMGITtZURTDIepgQAzTI
Grido Delivery,shopping_mall,44,-31.4456083,-60.932626,ChIJnUpBaT4TtZURS-Atakqm9jY
Gimnasio Fénix,gym,35,-31.4454769,-60.9329889,ChIJn-3tZz4TtZURw8ohR8fViO0
Energía Salud Esperanza,,0,-31.45242,-60.932468,ChIJ-2y-yCITtZURA6NkB93Miu4
Escribania Portmann,,0,-31.452358,-60.9323268,ChIJ5UVQ6CITtZURzw1dByxIilo
Sociedad de Canto "Männer Gesangverein",museum,98,-31.4519489,-60.9321645,ChIJDfb30xcTtZUR_J2ReVgDobc
AZ Centro de Entrenamiento Fitness,gym,7,-31.4519289,-60.9324342,ChIJz0J2ZuATtZUR-w-DkmadGrE
Motomecanica Los Primos - Especialistas En Todas Las Marcas,car_repair,1,-31.4521051,-60.932365,ChIJSzQsyiITtZUR8Gb7Le6NGzk
Farmacia Eberhardt,pharmacy,5,-31.4521634,-60.9323558,ChIJPxCDySITtZUROEINZuc2PDQ
Debiaggi Automotores,car_dealer,10,-31.4517321,-60.9323703,ChIJDckkVhYTtZURk9elp0_eB3s
DENISE CIPOLATTI,accounting+real_estate_agency,0,-31.4521891,-60.9321065,ChIJjYq4YCETtZURpZN1D6ycd30
Verdulería Huerta Fecunda,grocery_or_supermarket,28,-31.4515335,-60.9323568,ChIJi-l_Q60TtZURRqgAB7nlAHc
Kiosco Los Niños,,2,-31.4522285,-60.9318666,ChIJvb0wtyITtZURNPFngEpM7MU
Aromas Articulos De Limpieza Productos Y Articulos Para Piletas,home_goods_store,13,-31.4515276,-60.9322008,ChIJ-RyLNT0TtZURuYBGiBjSApM
Austral Inmobiliaria,real_estate_agency,66,-31.4509747,-60.9319348,ChIJtULGRz0TtZURE8VttXtCUWA
Serafin Trod,,0,-31.4513123,-60.9322472,ChIJE3MxNj0TtZUR5VGBqpQOuHs
Pinturerías Mercurio | Sección Automotor e Industria,home_goods_store,84,-31.4511136,-60.9324687,ChIJ3cFKBT0TtZURDf2f5KbnyzQ
Senasa,,0,-31.4513071,-60.9320164,ChIJaTagST0TtZURdY0QM9lgkEg
Joyería Claddagh,jewelry_store,2,-31.4514322,-60.9320558,ChIJzybjST0TtZURrkH3JQHdQgo
Maria de Luna,home_goods_store,0,-31.4508548,-60.9321147,ChIJ8bS7adcTtZUR0Pf-Ab364cE
Digital Planet,,0,-31.450382,-60.9324914,ChIJpe6nFj0TtZUR_T0yeUm6xqE
San Antonio La Pizzeria,restaurant,182,-31.450446,-60.9318709,ChIJf0jgQz0TtZUR6pA_oZ-LEw4
Copias Centro,,1,-31.4504285,-60.9318655,ChIJpxGa5k4TtZURCS29L0kXHnw
Print Gráfica,,0,-31.4508259,-60.9319003,ChIJ5VwbchATtZURYA2FKy0Q2wA
Inmobiliaria Omega,real_estate_agency,49,-31.449562,-60.9322734,ChIJ3fVHCz0TtZURdjxQSyczpZI
D'Ricco,electronics_store+home_goods_store,102,-31.4499316,-60.931893,ChIJNXsgbD0TtZURkMjOnPSi_-k
Credife,,0,-31.449972,-60.9317547,ChIJh3i5bj0TtZUR0jiYMbuKxmY
Gaesa,,1,-31.450021,-60.9319226,ChIJI8N4aT0TtZUROKJ_5c_WFuQ
Ferretería Esperanza,hardware_store,0,-31.4500682,-60.9319257,ChIJI8N4aT0TtZURUs2fZqGX9h8
Sad Maria Victoria,,0,-31.4495218,-60.9321573,ChIJDfb30xcTtZURGIGhxLNRODM
TCE Classic,clothing_store,0,-31.4497811,-60.931843,ChIJ0URNbj0TtZURfAYDvOTOFjU
Steffen Y Asociados Asesoramiento Contable - Impositivo,accounting,1,-31.449447,-60.9322429,ChIJx8JPCz0TtZURNpQojTBqng8
DRICO,,0,-31.4499574,-60.9317784,ChIJexT71PoTtZURFaKUCB-JvvA
Magnolo,meal_takeaway+restaurant,4,-31.4494709,-60.9325021,ChIJ3cFKBT0TtZURXiH0cJvBUpw
Domingo A Bravo,,0,-31.4500729,-60.9328075,ChIJw2xDED0TtZURoW4mSuHk9UI
Estudio Contable Impositivo Y Laboral San Martin,accounting,0,-31.4500022,-60.9317633,ChIJWQu_bj0TtZUR2quAGneS3gk
Maria Paz Indumentaria femenina,clothing_store,25,-31.4499872,-60.931759,ChIJ0bCwbj0TtZURSvNhiSCiEe0
CEP Centro de Estetica Profesional,beauty_salon,25,-31.4494836,-60.9319614,ChIJMwWUcz0TtZURvHx9ydw9Q1E
Hotel Castellón,lodging,395,-31.4493423,-60.9323976,ChIJw3qAcz0TtZURkpf-ck8oNe4
CASTEL BAR,restaurant,22,-31.4493423,-60.9323976,ChIJnVd7mBATtZURPgTOyibH3xM
Chacinados Tacural SRL,,22,-31.4489553,-60.932349,ChIJDfb30xcTtZURctO6V84Ipxg
Aromas & Sabores Reutemann,,277,-31.4493757,-60.9320933,ChIJDfb30xcTtZUR8bpQsWR-TJ4
Heladeria,,0,-31.4493884,-60.9320801,ChIJVzBhcz0TtZURppnHEQ4xkFg
CEP Esperanza,shopping_mall,4,-31.4489348,-60.9324711,ChIJm7OIABUTtZUR4sww1oxkSTI
Pepelopo Cumple,,46,-31.4494692,-60.9320195,ChIJAbJ5cz0TtZUR6WtcB6VPPPk
Anabé,clothing_store,2,-31.448739,-60.9323919,ChIJsyasoz0TtZURNJ4XlNYMSM8
TENEFE,casino+school,18,-31.448485,-60.9320829,ChIJc5L-mD0TtZURLvgiBoRTrJM
Alma Turismo,travel_agency,9,-31.4484087,-60.9321882,ChIJH2Wwoj0TtZURhVTZclUgtkA
María Florencia Peluquería,hair_care,1,-31.4484687,-60.9322188,ChIJiwZ5qHMTtZURQAsl_34wbnI
Mutual Alma Juniors,,132,-31.448552,-60.932464,ChIJe9Pboj0TtZURuvGb4ZZUmHo
Al Divino Boton,,6,-31.4486561,-60.9322786,ChIJDfb30xcTtZURsATDtMiJxEU
O.S.E.C.A.C,doctor,0,-31.4483613,-60.9324245,ChIJm_pavD0TtZUR-Rafwk_BLEE
Correo,post_office,0,-31.4485003,-60.9320878,ChIJZ0kimD0TtZUR8YVi5JwOF6k
Tenefe,,0,-31.448485,-60.9320829,ChIJb2S9iRcTtZUR15KtyN9bwDU
Mis Marias Indumentaria Femenina Para Adolescentes Y Adultos,clothing_store,0,-31.4482278,-60.9322479,ChIJ-9CUvT0TtZURKLajB2gpaPM
Oftalmologos Filomena,,0,-31.4482458,-60.9324552,ChIJG8czPQETtZUR-kXvwQ2M_KI
"Sol Revestimientos",,0,-31.4486101,-60.9319193,ChIJUzgLmT0TtZURgR2RtNvhAsY
APC Accesorios Para Celulares,,10,-31.4485118,-60.931767,ChIJvWjNDRYTtZURLORbbnnpgkk
Fundación Ramseyer Dayer - Espacio de Arte,,29,-31.447622,-60.9323712,ChIJBy1NAz0TtZURa0El-WWrO-s
Febo Arte Digital,,4,-31.4475257,-60.9323014,ChIJE8PtwDsTtZUR8xoOFEJG7J4
Tao Pilcheria,clothing_store,0,-31.4476457,-60.9320393,ChIJkUqrkksTtZUR01224bbRm9Y
Pluspagos Santa Fe Servicios,,3,-31.4476349,-60.9320459,ChIJgxJX6j0TtZURrLCzln6Kodk
Veterinaria San Roque,grocery_or_supermarket,0,-31.4477459,-60.9319216,ChIJMx6WWFQTtZURgvrWuMa40Fg
Consultorio Dental Alejandro Martínez Peleato,dentist,1,-31.4474767,-60.9320124,ChIJcVBHCDMTtZURq7fzIrqifl0
Oso Verde,clothing_store,0,-31.4476928,-60.9317673,ChIJA1e67D0TtZURB8EjomEQASA
Salón Sociedad Rural de Las Colonias,night_club+bar,24,-31.4473912,-60.9319836,ChIJyVhz6T0TtZUR9zEox8DFijU
Trod Guillermina Odontologa - Ortodoncista,dentist,0,-31.4472949,-60.9319457,ChIJZ3Hi6D0TtZURbj-v8J4AHr0
DIETETICA BIO DIET,shopping_mall,35,-31.4468214,-60.9318576,ChIJf3Ov5j0TtZURELCqDm3uj0A
Partido Justicialista,school,0,-31.4465389,-60.9318159,ChIJ77b5Sb0TtZURRI3KvmnxMnY
Automotores Collomb,car_dealer,8,-31.4457603,-60.931983,ChIJBQOdAz0TtZURZFX7T_hp0BA
Casa Juli,lodging,1,-31.4453513,-60.9324311,ChIJjZiwCzMTtZURSds4bHz5S6I
AUTOTECNICA SVRIZ - MECANICA EN GENERAL,car_repair,9,-31.4446165,-60.932086,ChIJBQOdAz0TtZURw5MTf8GlnJQ
Centro Médico Sur,,0,-31.4537201,-60.9316079,ChIJa7Dp8yATtZURgKXo7JS6uGU
Centro Almaceneros Minoristas,,0,-31.4540443,-60.9314031,ChIJ2fvOhyITtZURMvptpE1aBBA
Terminal de Ómnibus de Esperanza,,1132,-31.4533851,-60.9313443,ChIJc7zOhCITtZURtIq5YQ27IEY
Pontarelli Rodados,bicycle_store,0,-31.4526816,-60.9316162,ChIJBy1NAz0TtZUR2ae1wvvOQo4
Reina Mora,beauty_salon,16,-31.4528867,-60.931662,ChIJ6dAftBcTtZURSNsVXP29VCU
Papelera San Martin,,5,-31.4527045,-60.9316053,ChIJBy1NAz0TtZUR3kp7_UNiA4g
Pontina Bicicleteria,bicycle_store,126,-31.4526393,-60.9315802,ChIJGxvIvCITtZUR05TBKsNOtqs
Flecha Bus,travel_agency,10,-31.4533714,-60.9312352,ChIJkQREmiITtZURSlwRW3_rWqY
Isa,clothing_store,2,-31.4524458,-60.9315315,ChIJNx8luyITtZURHuRANbkpaiA
Jose C Brero,dentist,20,-31.4521961,-60.9313837,ChIJ12zzryITtZUR4jSjp4cgLBc
London Jeans,clothing_store,1,-31.4521456,-60.9313683,ChIJ-x2VryITtZURQAS2pvjzjEc
Carniceria Deppeler,,7,-31.4524433,-60.9313,ChIJ-7L0pCITtZURnpHZ2VBTCXE
Bazar J & S Gastronómico Hogar,furniture_store+home_goods_store,0,-31.4522594,-60.9312048,ChIJe0G-pSITtZURU9gradfdiT8
Despensa El Angel,,7,-31.4519515,-60.9313087,ChIJIWFnriITtZUR0RrDfgLwIJ0
Tarjeta Naranja,,68,-31.4514941,-60.9311253,ChIJ10FTUz0TtZURqTfY6UMyrPs
Maxi Kiosco El Angel 24hs,shopping_mall,14,-31.4518176,-60.9313902,ChIJe3DrrSITtZURD2FRNPG7KYs
Bazar Mediterraneo de Raquel Alvarez,,52,-31.4515634,-60.9313052,ChIJBy1NAz0TtZURC27tfpFtJSA
Rotulate,,5,-31.4514521,-60.9313732,ChIJP7m6Vj0TtZURzNWMF7r8gE0
Las Palmio,clothing_store,6,-31.4517463,-60.9312251,ChIJX9BFrCITtZURLPmU3wEsne4
Dietética La Casa Del Sol,,0,-31.4505766,-60.9314068,ChIJ5VqmXD0TtZURcSt-i8K3Iho
Banco Santa Fé,bank,0,-31.4505309,-60.9313632,ChIJ5UT_YN4TtZUREoMTL1op1PQ
Multitecnoesperanza,electronics_store,52,-31.4503673,-60.9316281,ChIJo8Q7Qj0TtZURuNMIXAt5CN8
Gaesa - Grandes Almacenes Esperanza - Construccion Y Ferreteria,hardware_store,96,-31.450161,-60.931766,ChIJOQVxaT0TtZURC_AS9aXTt3w
Venta Y Reparacion,,0,-31.4501641,-60.931701,ChIJi6sJaT0TtZURwSsjAVnZBHg
RBSERVICE,,1,-31.4501844,-60.931756,ChIJlSWaWYATtZUR6Cixx81rxug
Cajero Automatico Link Bco Santa Fe,bank,2,-31.4504,-60.9315803,ChIJoTzsQj0TtZUR_gxBZHfF1Zo
Calzados Fontanini,shoe_store,15,-31.4502894,-60.9317946,ChIJjSsbaj0TtZURvoSczFctiAw
Artículos escolares y fotocopias,,0,-31.4503658,-60.9317591,ChIJRwJXZVATtZUR56VocUrgsiA
Museo de la Colonización,museum+tourist_attraction,112,-31.4504564,-60.9313368,ChIJFQeVXD0TtZURyLscKzt7JnE
Sindicato de Empleados y Obreros Municipales,,1,-31.4499408,-60.9317072,ChIJe8zDbj0TtZURc6eL-C7uc2g
Valmotors FIAT,car_dealer,12,-31.4497233,-60.9315294,ChIJy6YwcD0TtZURqKJ24DsD3ec
Municipalidad de Esperanza,local_government_office,18,-31.4498443,-60.9312095,ChIJ79qKYz0TtZURZc1h5bHXa9E
Kiosco Mayo,,6,-31.4495393,-60.9316355,ChIJ9-xScD0TtZURjBNChm0n088
El Hornerito SRL,clothing_store,3,-31.449625,-60.9317074,ChIJ3cFKBT0TtZURxOBF2LiRNx8
TENIENTE DAN,,7,-31.4497176,-60.9315276,ChIJtYVIQCATtZURjHEThWDX6kA
Kiosco El tunel,,10,-31.4497641,-60.9313605,ChIJx7fjbz0TtZURqc9r0A2wZ6Y
CLARO GRUPO KUCHEN,,4,-31.4498125,-60.9316477,ChIJ3cFKBT0TtZURccyTv7DnNSY
Mati´s,shoe_store,1,-31.44956,-60.9313039,ChIJ375XZT0TtZURbVCVbETpY5I
Rizzi Hogar SA,,0,-31.4499073,-60.9316902,ChIJ76nobj0TtZURxvlefL_a-Es
Casa Bode SRL,book_store,190,-31.4492069,-60.9316482,ChIJ3cFKBT0TtZURZEZEJ7b1oFI
Cremolatti,,256,-31.4489704,-60.9314857,ChIJxXBWnT0TtZURSU-zj9CvOcM
Tienda la Favorita,,4,-31.4487819,-60.9315815,ChIJ3cFKBT0TtZURWfBU9d079x4
Monumento a la Madre,,0,-31.4487531,-60.9315507,ChIJVeF3sEoTtZURaaEai3aVFeE
Crédito Argentino,,1,-31.4489055,-60.9315011,ChIJi4wPJOITtZUR2Aj1rT_5FDM
Jump - Indumentaria Deportiva y Trajes de Baño,clothing_store,5,-31.4488216,-60.931786,ChIJBQOdAz0TtZURuU9jVfVVMFk
Concretar S.r.l.,,0,-31.4486677,-60.9316754,ChIJIVaEmz0TtZURFMqfijnIKSs
Confina Santa Fe Sa,,0,-31.4486698,-60.9317366,ChIJDfb30xcTtZURad_jjLTqXrY
Jump,,0,-31.4486544,-60.9317317,ChIJF0-Tmz0TtZURNiH8Tk802_Y
Pizza Days,restaurant,375,-31.449062,-60.9315591,ChIJI6qJdz0TtZURLHh4NoYXX7U
Baigorria Multimedios,,1,-31.4488456,-60.9313107,ChIJMZvtgj0TtZURIAnDMZ_SHGA
Yakarta Viajes,travel_agency,9,-31.4485588,-60.9316524,ChIJ64kHmz0TtZUREeKiS_pRCvs
Farmacia Limaiche,pharmacy,2,-31.4485569,-60.9315609,ChIJkSDIhT0TtZURKPdn9Wwyb-M
Coquetas,clothing_store,0,-31.4485795,-60.9314195,ChIJTwCqgz0TtZURUQEkgswCT_g
Optica Real,,3,-31.4491451,-60.9315993,ChIJj6_SeT0TtZUR10TPeENYoSA
Alesso & Müller Abogados,lawyer,1,-31.4479236,-60.9313002,ChIJ_YzNjT0TtZURBCwHRZgxCnA
Club Social,restaurant,96,-31.4480599,-60.9312969,ChIJDfb30xcTtZURXIjpFSTqVSY
Roger,clothing_store,6,-31.4482639,-60.9312646,ChIJfUZ-jz0TtZUR_MuWID2LUBM
Joyería y relojería Garibaldi,jewelry_store,13,-31.4484249,-60.931399,ChIJbZNAhD0TtZURj055QSpMB7k
Financom SA,,1,-31.4477781,-60.9315326,ChIJ69SRkj0TtZURQbY-NDZfXsc
AJ JOYAS,jewelry_store,5,-31.4484409,-60.9313747,ChIJTcKWmz0TtZUR2YG6TAOQm2w
Kiosko Billy,,1,-31.4477571,-60.9316275,ChIJL-rdkj0TtZURE-TBpdhuZEo
Santa Rita,clothing_store,1,-31.4484722,-60.9313848,ChIJNY2Fgz0TtZUR4-A79qcrs-A
Ana c. diseño & decoración,furniture_store+home_goods_store,23,-31.4477396,-60.9315571,ChIJLZnHkj0TtZURXoDS6GAViHA
Selfie TEENS,clothing_store,2,-31.4479149,-60.9312553,ChIJZVwjiT0TtZUR9TEJ9ZfHuag
PH ARQUITECTURA,,2,-31.4477123,-60.9314541,ChIJOfR7jT0TtZURFPduUTVQRiU
Morandin Natalia Carolina,,0,-31.4478266,-60.9312366,ChIJeZhGjD0TtZURIDP9HxnhPEU
Snack Rico y Rápido (Esperanza),restaurant,15,-31.4481141,-60.9310931,ChIJMe3APh0TtZURQFRPCO-GXDk
Centro Color Fotografia - Filmacion,,15,-31.4484146,-60.9311977,ChIJoy-1hT0TtZURrMUcDE7Ns6U
Centro Industria Comercio Y Afin de Esperanza,,3,-31.4476665,-60.9316375,ChIJuTIokz0TtZURqoynKYMXAAs
Clínica 3 De Febrero,doctor,1,-31.447222,-60.9313234,ChIJe66i8T0TtZURO0sdSpLtb8A
El Pasillo,gym,12,-31.4468316,-60.9317721,ChIJtRYX5D0TtZUR6nB3bwk9cgI
La Posta de la Papa,grocery_or_supermarket,1,-31.4466546,-60.9318041,ChIJ8V6Rm-cTtZURizk9a4_KBJY
Centro Medico de Diagnostico Y Tratamiento,doctor,0,-31.4468775,-60.9313389,ChIJB47u-j0TtZUR1642dWv6NYU
Laboratorio Bioquímico Noroña,,1,-31.4468852,-60.9313018,ChIJ4duupIQTtZUReJVjYqEGaXU
Imprenta Grafitti,,0,-31.4464249,-60.9316165,ChIJUQqG4j0TtZURfxBA3XjtzYc
Instituto Oxford,,0,-31.4459663,-60.9313951,ChIJBzG0Cv0TtZUR7yUOpNIgd84
Aura Lenceria Erotica,clothing_store,10,-31.4456648,-60.9314015,ChIJyxqxGj4TtZURccqhntC3AE0
LeSeitán | Alimentos Vegetales,grocery_or_supermarket,0,-31.4456692,-60.9313837,ChIJY_tSHzMTtZURGUzTDPbasRM
Florería Mutazzi,florist,22,-31.4456692,-60.9313837,ChIJBy1NAz0TtZURKkD8cGgwXC4
Dinoquo,,0,-31.4540144,-60.9308584,ChIJ5wNxgCITtZUROeI_72OPMX8
Organizacion Marcuzzi - Asesores de Seguros,,12,-31.453828,-60.9308159,ChIJ3cFKBT0TtZURRV82AqJPRIc
Cosa de Chicos,clothing_store,3,-31.4541253,-60.9311038,ChIJfW5rLiQTtZURdce5llByP2w
Hd Sport,,0,-31.4539909,-60.9307409,ChIJbTwCgCITtZURTRFGA-V6lU8
Snet Sistemas,,0,-31.4541302,-60.9311621,ChIJA2YzXc8TtZUR9fPUz0CvElw
Seguros Pianetti,insurance_agency,0,-31.4538545,-60.9307914,ChIJs__MgSITtZURZ33Pji-0IDQ
English On academia de inglés,,1,-31.454318,-60.9305929,ChIJPy7neoETtZURJ6hl4OouP0I
Garces Cristian,hair_care,36,-31.4545351,-60.9309546,ChIJ3cFKBT0TtZURlxdAY-U8_8A
Remiseria Esperanza,,2,-31.4532917,-60.9308792,ChIJIZAbnSITtZURd005HNDHQZg
Valen peluqueria,hair_care,4,-31.4532698,-60.9309491,ChIJ4fnCnCITtZURqZW2FWRP8N4
Sadop Osdop,,0,-31.4534241,-60.9310763,ChIJ79GknCITtZURq-VMP6EcV5w
Daperno & Asociados,real_estate_agency,28,-31.4532733,-60.9307719,ChIJExPgbzkTtZUR8OrMSuhqZf4
Pluspagos Santa Fe Servicios,,0,-31.4532395,-60.9310902,ChIJqd2FJjoTtZURx-RcbJazJ8w
Un Mundo De Frutas Y Verduras 2,,0,-31.4532714,-60.9307321,ChIJ-47fdxgTtZURA-lZ4hCOMyk
Integral Pack Express,,0,-31.4533651,-60.9312012,ChIJB3_CWDETtZURC6sgRp60dMA
Service Rivadavia,electronics_store,25,-31.4532285,-60.9307017,ChIJkVC-dxgTtZURqPbsvyDwh7g
Agencia TENEFE,,0,-31.453302,-60.9305191,ChIJC42AdxgTtZURFqooF2iQaY0
Autoservicio Distribucion Directa,,40,-31.452617,-60.9309332,ChIJN8JFpCITtZURB7FRpEN7d2U
distribuidora esperanza,supermarket+grocery_or_supermarket,1,-31.4525851,-60.9309217,ChIJ0ROwMrUTtZURCsZX6eR25A0
Il Peccato,,0,-31.4523069,-60.9310433,ChIJ9fqIpiITtZUREbhWEjjOpAc
SENTIR CARRUAJES SACIFIA - SUC. ESPERANZA,,10,-31.4522969,-60.9307834,ChIJPZZopyITtZUR8SoGn_JD5Hk
Peluqueria ¨Quique¨,hair_care,1,-31.4524119,-60.9305153,ChIJfcW3CxgTtZURnCLfRqH87vI
CENTRO DE LA VISION DRA JULIA E KLINGLER - CIRUGIAS,,9,-31.4522068,-60.9304745,ChIJ44YaDBgTtZURTWF6M_Hp1Ec
Acastello y Rosso Esperanza Sepelios,funeral_home,3,-31.4515554,-60.9308625,ChIJX6FdV_0RtZUR7X26MLHU2R8
Librería Manantial,book_store,46,-31.4510603,-60.9309557,ChIJZeYcVD0TtZURulG7yQduRVw
El Lazo - Alquiler temporario,lodging,19,-31.4513383,-60.9310986,ChIJdXRSzQITtZURRJEdGoDpVwI
Blazicevic Martin Productor Asesor de Seguros,insurance_agency,0,-31.4511866,-60.9310328,ChIJFRcaVD0TtZURe5FBdIEw9N8
Escribania Bianchi,,16,-31.4511378,-60.930924,ChIJBWmiVj0TtZURr37bXc3YPvQ
Agrsalud,,0,-31.451152,-60.9310221,ChIJxTgeVD0TtZURjsR22wRAn2o
Casa Fontana Ferreteria,hardware_store,81,-31.4509711,-60.9308501,ChIJBQOdAz0TtZURnIRbRrQe79s
Cablevisión Fibertel,,33,-31.4507924,-60.9310407,ChIJobz4aT0TtZURNwcg11KIgXY
Maitess Esperanza,furniture_store+home_goods_store,18,-31.4503469,-60.9306984,ChIJw8enShYTtZURJvRoMaSYAPc
Telecom Argentina,,1,-31.4507267,-60.9310469,ChIJ9XmYWT0TtZUR-R3bD1abjjs
Casa Rizzi,,0,-31.4507686,-60.9307639,ChIJFwgEWD0TtZURTugyKzGztaE
Fermín Calzados,shoe_store,8,-31.4503904,-60.9308406,ChIJTYfrLxYTtZURiS29lMmti-E
Ramunno,,0,-31.4502806,-60.9307607,ChIJZch-Xz0TtZURyYiJrnVgXys
Clemenz Lorena Soledad,,0,-31.4502806,-60.9307607,ChIJZch-Xz0TtZUR5P-LkZS3eCI
Óptica MULTI VISIÓN,,5,-31.4502385,-60.9308409,ChIJ57LX4RcTtZURsUFhxn8Yg3o
Neylan,shopping_mall,2,-31.450228,-60.9309066,ChIJJcK2Xz0TtZURsfVuVvciG18
La Cueva Del Gamer,,1,-31.4501761,-60.9307497,ChIJB-z0Xz0TtZURkGkT-eipJQM
Red SPORT,,131,-31.4499299,-60.9305386,ChIJ90TS2BcTtZUREpnFZlTfQTM
Powerfit,,0,-31.4498312,-60.9309083,ChIJWRAqYj0TtZURw56TMIFcvBA
Royal Café,restaurant+bar,1078,-31.4498731,-60.9308384,ChIJtVc83xcTtZURfUxRo6TnsCM
Maecch,,0,-31.4496812,-60.9308443,ChIJUWhDYj0TtZURlQsXMt_2arQ
Libreria Arquidiocesana Pablo VI,book_store,0,-31.4500045,-60.9307196,ChIJBQOdAz0TtZURwT3x1E39bFU
Allegra Viajes,travel_agency,3,-31.4499915,-60.9306965,ChIJ3cFKBT0TtZURvobAZLBfX_Y
Pluspagos Santa Fe Servicios,,0,-31.4496447,-60.9310056,ChIJzdUMYz0TtZUR7jC0gOyAmXs
El Cielo,,0,-31.449737,-60.9305941,ChIJX-Yk3xcTtZURUXqmQPsXHo0
Nissi,clothing_store,1,-31.4500815,-60.930633,ChIJpfeRLxYTtZURHfHXJkAWGV4
FinanYa!,,1,-31.4491454,-60.9314025,ChIJ3YzOeT0TtZURuQPUAvat2-E
Corty List,furniture_store+home_goods_store,0,-31.4485421,-60.9312127,ChIJ2QNuhD0TtZURDeGilxQCjms
Menta Food&Roll,bar,545,-31.4475745,-60.9308938,ChIJLUwWiz0TtZUR7OPFIUCJcXo
Edicion Uno,,18,-31.4475394,-60.9308932,ChIJAT9Kiz0TtZURghVzWFQ5og4
Cositas Almacén De Regalos,,136,-31.4474775,-60.9309909,ChIJ5yUvCD0TtZURadiNZ-o2iPY
Cajero Automático Banco Galicia,atm,0,-31.4477793,-60.930899,ChIJYZrhup0TtZURbQYa98Lo6u0
Banco Galicia - Sucursal Esperanza,bank,5,-31.4477873,-60.9308871,ChIJtSfkiz0TtZUR_tLvBYTHKF8
Agrim SRL,clothing_store,0,-31.4476478,-60.9311273,ChIJ-51vhD0TtZURJY_O2mjtZcM
Tecnohogar,home_goods_store,3,-31.4478401,-60.9306703,ChIJE2PXiz0TtZURTK_oDY-Pe8o
Maria T Calzados,shoe_store,5,-31.4475707,-60.9309135,ChIJNQYStooTtZURI7X97URtW9w
Narciso Bar,restaurant,249,-31.4476854,-60.9311889,ChIJYSNajD0TtZURVtHuQVvhHfI
Grafica Caussi Imprenta - Libreria,book_store,19,-31.4475995,-60.9311115,ChIJY_UUiz0TtZURp0Sox9Hq4JM
Asoc Mutual Bomberos Esperanza,bank,1,-31.4478702,-60.9306543,ChIJI1jGJxYTtZURW7Nh00ixMzI
Maitena Lenceria,clothing_store,5,-31.4475394,-60.9308932,ChIJAT9Kiz0TtZUREPJPcEuexpY
Gómez & Svriz Arquitectos,,2,-31.4470953,-60.930974,ChIJ8aKf9z0TtZURE8NZCTL9R3U
Tiny Bunny,clothing_store,0,-31.447074,-60.9309532,ChIJhQDnDYkTtZURGDuYJj5REwY
Canesini Marisa,,0,-31.4472142,-60.9309233,ChIJR04t9D0TtZURTI1DqW39Adc
Optica Marchiori,,0,-31.4472216,-60.9309893,ChIJ3cFKBT0TtZUR1Pt9dfywuI0
Vinotecas,,0,-31.4470116,-60.9308361,ChIJg6q19z0TtZURxC6cG50Umac
Celular Service - Reparacion Y Vta,,0,-31.4470101,-60.9308096,ChIJERbL9z0TtZURIOZrDbog0Gk
Aclisa,,3,-31.4469562,-60.9309671,ChIJmUZt9z0TtZURKaxHVcRWZMs
Gamati,shoe_store,5,-31.4469857,-60.9308276,ChIJRdu39z0TtZURGj3pbZGpIwU
Remises Martin Güemes,,1,-31.4469522,-60.9309857,ChIJBQOdAz0TtZURWa6ZBETz6Eg
Ci_celulares informatica,,1,-31.4469813,-60.9308068,ChIJERbL9z0TtZUR0rIxBbGNbKU
ÓXIDO STORE,clothing_store,3,-31.4470107,-60.9307183,ChIJ70XvTAcTtZURJy-dsdvoK7M
Don Faustino - Vinos - Quesos - Fiambres,grocery_or_supermarket,16,-31.4472106,-60.930721,ChIJhTji9T0TtZURAXffQI_1EwI
Optica del Sol,,1,-31.4463199,-60.9307409,ChIJwSJcABYTtZURxE_faHWZa4g
Brotes Tienda Saludable,meal_delivery,3,-31.4462056,-60.9307934,ChIJWwvogQwTtZURT90DkdqsvZs
Service Esperanza,supermarket+grocery_or_supermarket,33,-31.446418,-60.9306525,ChIJlx2TARYTtZURlCH9KxgVC2Y
Brotes Tienda Saludable,meal_delivery,3,-31.4461888,-60.9308014,ChIJt-xEYFoTtZURFqnphgFHUfE
Heaven,clothing_store,0,-31.4466895,-60.9308511,ChIJCVkAAhYTtZURqtF6UtoRvXM
Sportness,,1,-31.4461065,-60.9307795,ChIJs7QiAD4TtZURaIk80zmbdG8
Casa Biby,clothing_store,0,-31.4461803,-60.9306472,ChIJDQfNqAUTtZURFzjY-V9n3Xo
Malibu,clothing_store,8,-31.446426,-60.9305339,ChIJdZLJARYTtZURSB66rj6TFy8
Memmeka,clothing_store,0,-31.4463281,-60.9305394,ChIJ31MGARYTtZURvWJFHy8Mcv8
VDG Traducciones,,0,-31.446091,-60.9307745,ChIJ41wjAD4TtZURZMj4IZ1jFTg
Farmacia Mutual Jerárquicos - Esperanza,pharmacy,8,-31.4468309,-60.9308857,ChIJ26f9AhYTtZURT2BNuUhjLjY
Iturraspe Studio FOTOGRAFIA,,0,-31.4468118,-60.9307546,ChIJLZoG-D0TtZURJX0CV1BzNHQ
FV Electronica,,1,-31.4460012,-60.9306656,ChIJQ54q_hUTtZURrfNZyObQs0o
Boutique De Las Mascotas,,9,-31.4462632,-60.9304103,ChIJG_p452ATtZURUF03vpOY4xs
FUROR Indumentaria y Accesorios Deportivos,clothing_store,7,-31.4457187,-60.9305667,ChIJrR7Q2qkTtZURokd03zXi8_Q
Perfiles,clothing_store,0,-31.4459106,-60.9306043,ChIJMbwX_xUTtZURspVlJDkmGJc
Shantu Generos,home_goods_store,2,-31.4455627,-60.9304854,ChIJj0KII50TtZUR45IOJ_PPgbQ
Ni Blanco Ni negro,clothing_store,0,-31.4458908,-60.930492,ChIJXVvzVLcTtZURTPZ1c9_I0yY
Sara Noa,,0,-31.4458908,-60.930492,ChIJARfp_hUTtZURavazkm0K7-M
SETTES Almacén Natural Dietética,grocery_or_supermarket,25,-31.4455039,-60.9304668,ChIJPfhZNrwTtZURiJSxcyxCZMs
Milo amoblamientos,,0,-31.4456517,-60.93042,ChIJX7x80QQTtZURtkVAW6zYAYI
Viviendas Bogao - Caso,real_estate_agency,0,-31.4456556,-60.930402,ChIJt-dk-RUTtZURYEr93XdW0DY
Isabella Salon Unisex,hair_care,1,-31.4538218,-60.9298486,ChIJZ_CUiRgTtZUR0DGhi25VwFk
Carniceria "El Cacho",,0,-31.4538623,-60.9298428,ChIJ8zY0iBgTtZURMLaDz1mrCrk
Hogar Virgen De Los Milagros,,0,-31.4540157,-60.9298899,ChIJj2_uiBgTtZURvq2J5ORku1k
DAP Construcciones - Construccion Civil,,0,-31.4539808,-60.9298112,ChIJOQUDiRgTtZUR0UisDZKldcY
Gestoría Meyer,,1,-31.4526929,-60.9301642,ChIJR7XcchgTtZURqbhAVDmLS3I
Sanatorio Medico Quirurgico Santa Fe SRL,doctor,0,-31.4526789,-60.9302585,ChIJDfb30xcTtZURDNuDIll7Wvo
SINAV,,0,-31.4527517,-60.9297885,ChIJVf1bw6sTtZURoVF4t6KiyzM
Electricidad Colombo Sh,,0,-31.4523108,-60.9303352,ChIJL_sEDBgTtZUROREgXoYHsCQ
Oftalmólogos En Esperanza,,0,-31.4523108,-60.9303352,ChIJ4_kEDBgTtZURS9vta2xyPkc
La vida es como un espejo,bakery,0,-31.4523448,-60.9303666,ChIJz466ycsTtZURXzGJNgtQQO8
La Grazie,,0,-31.4521983,-60.9302042,ChIJGRyJDhgTtZURrVn4oQQKF5o
Veterinaria hocikos,veterinary_care,50,-31.4523622,-60.9304401,ChIJW6aBDBgTtZUR8PGikcQoNgg
Kibou Viajes,travel_agency,1,-31.4525454,-60.9304019,ChIJbyW5CpgTtZURf-NeAi9jDaQ
VLA / ARQUITECTURA,,2,-31.4515976,-60.9299692,ChIJVzpPGxgTtZURAn8dJsBQzLo
Grupo Kuchen Seguros,insurance_agency,1,-31.4517101,-60.9301191,ChIJS-dgMxoTtZURclzCDUzSfFY
live music clother,,0,-31.4515881,-60.9301225,ChIJERQo7uMTtZURVKZ0OuIyjcU
Consultorio de Kinesiología Lic. Julián Groppo,,1,-31.4515727,-60.9300429,ChIJP9Z4eNcTtZURWhuCHKSzgUw
Silvia R Maier,,0,-31.4515235,-60.9300837,ChIJH0NbAxgTtZUR0gjSToKrYXM
Ssetes,grocery_or_supermarket,0,-31.4514861,-60.930284,ChIJhSe1FaMTtZURNP9icM4qXKE
Chic & Chic,,3,-31.4515976,-60.9299692,ChIJV0krYR4TtZURdsr1NNC9a8c
Mauro Sergio,clothing_store,0,-31.4514369,-60.9301871,ChIJ0aYGAxgTtZUR9E3-NepXrAE
Baños Químicos En Esperanza,,1,-31.4516432,-60.9305071,ChIJISouARgTtZURtFaBwFihKXQ
Yacobe Belquis Maria,,2,-31.4513955,-60.9300843,ChIJsaPYAhgTtZUReupEh1zsRaQ
Gestoria Lamagni María E,,1,-31.4517004,-60.9298479,ChIJH_wTwOsTtZURCR3K5d9xINM
Pintureria Integrada Esperanza,home_goods_store,4,-31.451346,-60.9301374,ChIJSxPUAhgTtZUR2htXmF51D78
Carnes 2000 SA,,2,-31.4513392,-60.9299185,ChIJ94XPAhgTtZURMfqtQMobF5A
Arlequin Pañalera,clothing_store,1,-31.4518113,-60.9297335,ChIJ1R2gEBgTtZURAd64Kf8TFbw
Frioteka,,166,-31.4512179,-60.9301174,ChIJGx3x9xcTtZUR4p5nlLR4esA
Esperanza Distribuciones Sh,,0,-31.45121,-60.9302455,ChIJAQCT-BcTtZURlgdET3iWpyA
Stone,,0,-31.450787,-60.9298818,ChIJ7TDo8BcTtZURKFE7WgKZxQM
BANCHIO Inmobiliaria,real_estate_agency,70,-31.4511037,-60.9300771,ChIJZ4GF9xcTtZURndWwmX9t874
ROTISERIA ME-TENTE,supermarket+grocery_or_supermarket,32,-31.4507549,-60.9303643,ChIJBQOdAz0TtZURxKmjsNcnISo
Palacio Stoessel,museum+tourist_attraction,3,-31.4509663,-60.9297994,ChIJi1E99xcTtZURvqY_Fm-tbIA
Palalin,,0,-31.4506549,-60.9299308,ChIJt-xQ8BcTtZURFT-JYMy7fQw
El Aguante Deportes,shoe_store,9,-31.4507809,-60.9297524,ChIJST_H8BcTtZUROgipZ0NVmJc
Basílica Natividad de la Santísima Virgen,church,218,-31.4500831,-60.929979,ChIJ19rp5xcTtZURsfC-j_st2mE
Parroquia Catolica,church,4,-31.4500476,-60.9299629,ChIJDfb30xcTtZURt1nF3hXfMuY
Calzados Alteza,shoe_store,2,-31.4497819,-60.9302742,ChIJnxJI3BcTtZURYLvSKHOryi4
Litoral Quinchos Sa,home_goods_store,3,-31.4489859,-60.9303662,ChIJDfb30xcTtZURKbIRboghgw8
Plaza San Martín,park,2499,-31.4487743,-60.9304122,ChIJ68Z11BcTtZURmxeyEhH6hHU
Estela Delfino,clothing_store,3,-31.4489859,-60.9303662,ChIJG82fSt0TtZURhe6zssMzkjs
UPCN Santa Fe - Delegación Las Colonias,,0,-31.4480311,-60.930121,ChIJpfeRLxYTtZURcEguPIt9IBo
Kalma Alma,clothing_store,1,-31.4480311,-60.930121,ChIJDfb30xcTtZURlVdUo1ObP_0
Iglesia Evangélica,church,3,-31.4479524,-60.9303203,ChIJ_QIwJBYTtZURfVyZASiwfZk
Mutual Regional,bank,5,-31.4480202,-60.9299523,ChIJPyKTLxYTtZURnF9irhQ7Gso
CENTENARIO MUTUAL REGIONAL,local_government_office,0,-31.4479774,-60.9299316,ChIJpfeRLxYTtZURxsUCdwR01Q4
Lola Mora's - venta de vestidos,clothing_store,21,-31.4478362,-60.9300377,ChIJBQOdAz0TtZURrSNwCwBwTV0
Besame,clothing_store,0,-31.4478599,-60.9299835,ChIJ8197MRYTtZURot4gqZgevFQ
Eclectica Esperanza,clothing_store,3,-31.4482178,-60.929749,ChIJh8ZhMRYTtZURb0LOGVFkiNQ
Panaderia y Confiteria Del Sol,bakery,16,-31.4480535,-60.9296942,ChIJrS09MRYTtZUR_FbGuKhy3aQ
YPF,gas_station,388,-31.4473067,-60.9300572,ChIJF2cMGBYTtZURitIghvET46w
AGROMOTOR SANTA FE S.R.L.,shopping_mall,95,-31.4475583,-60.9299271,ChIJp6k1IxYTtZURAjIISMdldk0
Renault Servicios,car_repair,4,-31.4471776,-60.930465,ChIJtfKsHhYTtZURig8B_CKKbsU
Marity Calzados,shoe_store,10,-31.4476741,-60.9298734,ChIJUytNOxYTtZURRcoyYwCe8J0
Quincho,bar,0,-31.447051,-60.9301879,ChIJq3WCGRYTtZURstV4UwmjjrE
HELADERIA LATINOS-HELADOS MAMBO,,22,-31.4471467,-60.9305257,ChIJAQcoHBYTtZURoC99MZEWIoQ
Vidrieria Veco,,1,-31.4470867,-60.9299148,ChIJBy1NAz0TtZUROVD-iJmNUPU
Consultorios Odontologicos Bertone,dentist,2,-31.4469182,-60.930544,ChIJlwj9HBYTtZUR8pr3wDYMOY8
Clinica Veterinaria Como Reyes,veterinary_care,1,-31.4468778,-60.9298497,ChIJmQ-lFhYTtZURG9rZ5cQ17PY
Relojería y Joyería Piccola,jewelry_store,27,-31.4469221,-60.9298647,ChIJgUjqFhYTtZURVN-XnOJySd4
Lucas Kern Odontologo,dentist,1,-31.4469582,-60.930563,ChIJWQAIjKMTtZURf5MBff__dYg
IPPAI Inglés,,0,-31.4465693,-60.9297564,ChIJabS6VkwTtZURBOvLO0m5fgs
El Armario de Benicio,clothing_store,1,-31.4464122,-60.929836,ChIJ88rJ2ugTtZUR_9xazFhpQdE
ZIBÁ peluqueria,hair_care,3,-31.4462859,-60.9303524,ChIJly0YWYATtZURjYNKrJd2d0Q
Poder Judicial Esperanza,courthouse+local_government_office,3,-31.4463987,-60.9298183,ChIJkX05CRYTtZURCpK-zrHr2XQ
Planeta Pizza,restaurant,794,-31.446133,-60.9301401,ChIJr_PiBhYTtZURcIzbpZRI-FM
Universidad Siglo 21 - CAU ESPERANZA,university,4,-31.4456295,-60.9302248,ChIJSxmq_hUTtZURYMQyqz46300
Kröhling Seguros Generales. -,insurance_agency,2,-31.4460896,-60.9301908,ChIJXZgqGwgTtZURa97DwkrraDA
Estudio Jurídico Kröhling,,0,-31.4460896,-60.9301908,ChIJo0KHAF0TtZUR3J8d5cW1jmY
Joyería Josefina,jewelry_store,0,-31.446113,-60.9302715,ChIJH_JuHf4TtZURBSvjn6lokFA
Les Bonita,,0,-31.4461027,-60.9303005,ChIJgT4eBxYTtZUR_v7JyO6zWW0
Chiquiland Jugueteria,,36,-31.4459524,-60.9303911,ChIJ5z-v_xUTtZURBxImEd0tL5A
Laudomia,clothing_store,32,-31.4460409,-60.9304153,ChIJewAO_hUTtZURxUk3jgO6hR0
Heladería Grido,,747,-31.4460791,-60.9304286,ChIJEfKLDJVTtpURwVYSpB-c0J4
Dos Catitas,clothing_store,4,-31.4461372,-60.9300029,ChIJaZZ4CBYTtZURJgpBFL4Hph8
Rodamientos En Esperanza,,6,-31.4541989,-60.9297626,ChIJMekdjxgTtZURA1MYMd3FoaI
Kaserito Viandas,,0,-31.4538569,-60.9296674,ChIJc7uDiRgTtZURKtVTDbIq0FY
Moscato Almacen,grocery_or_supermarket,5,-31.4538234,-60.9296568,ChIJb0CEiBgTtZURA_h_lbCUhEo
Nutri Shop,,0,-31.4537477,-60.9293644,ChIJvbe_ihgTtZURDghe9h0_7Bs
Gestoria Marta Mehring,,0,-31.4544989,-60.9297428,ChIJDfb30xcTtZURagv0DXz6kno
"La Brujita" Articulos De Limpieza,home_goods_store,51,-31.4536933,-60.9292576,ChIJYeBN9RgTtZURKMVjOI2VDls
Inmobiliaria Reinoso,real_estate_agency,1,-31.4534262,-60.9295407,ChIJS36vJYQTtZURoaffW1mlz38
Mottura Ostertag Estudio Jurídico Contable,lawyer+accounting,0,-31.4534262,-60.9295407,ChIJM0ioK5MTtZURn9Pwk7ozZVk
Remates,,0,-31.4533702,-60.9294807,ChIJuzzNZhgTtZURd6yRp6vrWsY
Carnave,,96,-31.4535267,-60.9295359,ChIJp0jQYxgTtZUR8oKDMmuxg4Y
Pastelería mamma mia,grocery_or_supermarket,65,-31.4535981,-60.9292376,ChIJ87faYRgTtZURiM1zXAMzPHM
Fontana Roque Sh,,35,-31.452965,-60.9294814,ChIJX6FdV_0RtZURDwfJlmgXJRE
La Casa De Nuchi,,0,-31.452953,-60.9295671,ChIJeTvDaBgTtZURGYWH_W7Kzmg
Belén Lencería Indumentaria,clothing_store,0,-31.4529742,-60.9293626,ChIJA_RtaBgTtZURCrByqWJRK5Y
¨Doña Maruca¨,,0,-31.4529528,-60.9293726,ChIJVShraBgTtZURaV8EZhvw3iA
Farmacia Zehnder,pharmacy,3,-31.452623,-60.9297402,ChIJayh5PhgTtZUR3mQQf8j0ZHc
Cerrajeria JEA,shopping_mall,23,-31.4527431,-60.9290347,ChIJmQkCQxgTtZURWlJNXJUDu-Y
Mahatma Variedades,,0,-31.4519932,-60.9293132,ChIJl0ccFhgTtZURW-BH3bpoM60
Eme Be ShowRoom,clothing_store,37,-31.4519873,-60.9292627,ChIJh4S7GEsTtZURgmL2BaVhICE
Quinta Esencia,doctor,1,-31.4521769,-60.9290727,ChIJ2U8PPxgTtZUR-humCR5_7d4
OXFORD POLO CLUB,clothing_store,10,-31.4509918,-60.9292944,ChIJtwhL9RcTtZURi5Nbbjfpoao
Pity Krug - Marroquineria y Sastreria Fina,clothing_store,0,-31.4509851,-60.9292497,ChIJ3cFKBT0TtZURHf2Hdn5IFoM
Rincon del Hincha,clothing_store,0,-31.4509832,-60.9293343,ChIJia5H9RcTtZURDb_n0dGJy7k
Domenica,,0,-31.4510619,-60.929192,ChIJm6cSIBgTtZURbIfcirqNt6I
decoud computer store,electronics_store,3,-31.450922,-60.9296139,ChIJ7cb05WcTtZURyQ4gC_3t_2o
Muebleria Massi,home_goods_store,2,-31.4514638,-60.9290222,ChIJd5OgIxgTtZURPX7Hm5bQO70
Embalajes Avenida,,0,-31.4514638,-60.9290222,ChIJI84Ec90TtZUR7zJiJ7_7XxA
Floreria Ideal,florist,11,-31.450578,-60.929818,ChIJ9-zM8RcTtZURsxm-CjsYaCo
La Anónima,supermarket+grocery_or_supermarket,1548,-31.4501681,-60.9295614,ChIJiRBi6RcTtZURD8FhSRBDPRQ
Alisha tienda,clothing_store,1,-31.4506318,-60.9289731,ChIJQ3QjiKgTtZURva7yz-dfZaE
Dondequieras Café-Bar,cafe+bar,1085,-31.449693,-60.929448,ChIJ3cFKBT0TtZURj5yElDRIco0
Musimundo,movie_rental+furniture_store,296,-31.4494567,-60.9293644,ChIJt6arZhUTtZURppwl_c0cWNc
Cleos,clothing_store,2,-31.4497863,-60.9294514,ChIJP-UhwhcTtZURjWUMeno7r2k
Trigo de oro,bakery,1,-31.4498714,-60.9297498,ChIJ_5ne6RcTtZUR4BizN6qeUyw
Herejes,,0,-31.4497251,-60.929633,ChIJ81EQIN8TtZURr5KRgfQiPHg
Teos Radio 101.5,,1,-31.4497197,-60.9296507,ChIJvxEnwhcTtZUREK1gKe9VhHA
Plenty,,0,-31.4495787,-60.9295872,ChIJ9StcwRcTtZUR7eexhNFnlG8
Cheeky Esperanza,clothing_store,8,-31.450051,-60.9290555,ChIJgzizkxcTtZURmTtg3q23RFM
Banco de la Nación Argentina,bank,10,-31.4489967,-60.9292047,ChIJrb3nxxcTtZURPQN8M9JwzoQ
Cortassa Perfumerias,clothing_store,3,-31.4492867,-60.9292792,ChIJS3JfZSsTtZURZQzYNusbJCQ
Rimax,,0,-31.44936,-60.9293312,ChIJwZaF0BETtZURLmrlHp6kurU
RE/MAX FORTALEZA,real_estate_agency,20,-31.449326,-60.9292619,ChIJQ4hRpz0TtZURZBEd_0h4pho
Amorcito,clothing_store,0,-31.4488362,-60.9293748,ChIJCzyTyRcTtZURza4QSFrfjfs
Maitess SA,home_goods_store,14,-31.4483842,-60.9292713,ChIJHWbHtBcTtZURN4PcXNABRG8
Puerto Rico,bar+restaurant,460,-31.4481098,-60.9294063,ChIJZxm3NRYTtZURBbI4rNKlEcE
Todo Por Menos,,5,-31.4485237,-60.9292782,ChIJ3cFKBT0TtZURmuiqFzfTwgw
Credifiar Suc. Esperanza,,0,-31.44816,-60.9293227,ChIJNc22Pr0TtZURpNNqurGSewc
Cosmetica Rohujor - Perfumeria Accesorios Para Peluqueria,pharmacy,2,-31.448655,-60.9290925,ChIJw8H1tRcTtZUR14jOqib75Fs
Centro Proveedor El Negrito,grocery_or_supermarket,0,-31.4481068,-60.9294945,ChIJ7f6ONhYTtZUR21mvse-p2l4
Pancho 49,restaurant,214,-31.4481031,-60.9295267,ChIJE0BikBcTtZURIgKtNxaOXt0
Belgrano y 25 de Mayo,shopping_mall,16,-31.4481428,-60.9291809,ChIJGVr4ShYTtZURfEP7q8O0uJk
DAG Estudio de Diseño,,0,-31.4474375,-60.929194,ChIJI7vEQBYTtZURyGQZP8V2T5o
Sportness,,0,-31.4477332,-60.9297306,ChIJ1bkZDTUTtZUR5xB8ZNonj7c
Ana Fisher Instituto,,0,-31.4478749,-60.9291024,ChIJdS78SBYTtZURST1S_PwCUyk
Braseria Del Centro,restaurant,0,-31.4473999,-60.9294483,ChIJQZ8EPxYTtZURtoFDq51HboY
Luna Mia Boutique,clothing_store,0,-31.4476726,-60.9290396,ChIJhRUiRhYTtZURBDTnCp3izKI
Ipot,hospital,0,-31.4477072,-60.929028,ChIJDfb30xcTtZURRW_HejT3lcg
"Chocho" Copias,,88,-31.4471812,-60.9295185,ChIJPzzBPxYTtZURaZK4UJ6Z95U
Etienne,,0,-31.4471302,-60.9297059,ChIJ7R9sFhYTtZUR-N8tJSjboGI
Ambort Jose Luis,,0,-31.4472097,-60.9293384,ChIJhQSgQBYTtZURC1uPJd7oWGY
Centro de Especialidades Medicas Cem,hospital,2,-31.4468774,-60.9296196,ChIJBQOdAz0TtZUROgHTvvXo6Xo
Nain modas,clothing_store,1,-31.4468397,-60.9296073,ChIJMRh0ERYTtZURzPJ0yLx2o0Q
OSDE,,0,-31.4467679,-60.9296046,ChIJ--mD6v2ptZUR7b3AEpmtugU
Casa Toral,,0,-31.4473335,-60.9292655,ChIJq0ycQBYTtZURGsYOFqd_RM8
Registro Civil,local_government_office,22,-31.4466666,-60.9296464,ChIJ5_eJERYTtZUR_oKG_LuI3_k
CAJERO EXPRESS,atm,0,-31.4466173,-60.9295552,ChIJ11KsqMUTtZURQwZsJmPGcWU
Macro Sucursal Esperanza,bank,8,-31.4464728,-60.9294966,ChIJSw80DBYTtZURhPCWrsmNNcg
APC Accesorios Para Celulares,,30,-31.4464378,-60.9296909,ChIJgTUQmz0TtZURpYQHP-vEUkw
Shear Club,hair_care,36,-31.4459476,-60.9293373,ChIJb3jrChYTtZUR_bUgaODJqeM
Ostalmología Frontera,doctor,0,-31.4464333,-60.9288737,ChIJJR3CbRYTtZUR4LkFE1jcPyo
Ke Facil - Creditos En General,,1,-31.4456916,-60.9293674,ChIJBQOdAz0TtZURlrqbKvwrxLI
Bicimania,bicycle_store,4,-31.4453499,-60.9296337,ChIJUzF25hUTtZURIx-YcKNlGVI
Comisaría 1ra,police,1,-31.4455697,-60.9296061,ChIJddU-5RUTtZURzq8yBGlpFkQ
Natalia Ansaldi,,3,-31.4456194,-60.9293644,ChIJbWeT4BUTtZURt3PhBT1mNjw
Unidad Regional XI de Polícia - Las Colonias,police,10,-31.445892,-60.9295822,ChIJe4z_75YTtZURgm7Ui_HaBcI
Oxe Esperanza,,0,-31.4458701,-60.9293148,ChIJoZSkChYTtZUR1fqaLWR-na0
Bicimania Te Pone En Carrera,,3,-31.4453943,-60.9294636,ChIJJfDK5RUTtZURNnLLiaw5B6k
Idesa,,1,-31.4452805,-60.9293531,ChIJkWeU5xUTtZURBAz3U3rUjwc
Estetica Profesional Esperanza,,8,-31.4537667,-60.928599,ChIJvTZE9xgTtZURyHVlkUWDSss
Lf Peluqueria,,0,-31.4539716,-60.9288659,ChIJKelt8RgTtZURqR5G6d5BB4w
Divas Salon,,2,-31.4539726,-60.928387,ChIJhwrj-hgTtZURwoWSxNDejLI
Escribanía Gretel Althaus,,0,-31.4539153,-60.9283225,ChIJASL0lWETtZURzxWKeHir-3A
Micheloud,,0,-31.4532721,-60.9285135,ChIJ3Vx6VxgTtZURi9oVeq52PHI
Autoservicio La Silvia,book_store,127,-31.4532722,-60.9285132,ChIJL116VxgTtZURS6dow3DQRBo
Tomas Thimental,school,0,-31.4529697,-60.9283924,ChIJ78NXviATtZURNWBMGOoekLg
Yeruva Sa,,0,-31.4529286,-60.9283827,ChIJNYfsWxMTtZURDvcMXpjZQ5Q
Consultorio Odontologico "Cena & Ojeda",hospital,6,-31.4521467,-60.9285767,ChIJN4AnHO0TtZURUfGyudtz1gA
Caño 72,,0,-31.4520382,-60.9288693,ChIJZ6E6ORgTtZURQZ_kzbsz-gk
Tour Sen,,0,-31.4520588,-60.9285283,ChIJ_auONxgTtZURLI-PFhmOFDE
Consultorio Pilares,,7,-31.4522096,-60.9283052,ChIJ85TgSRgTtZURPs8nY5FLrm8
Papelera AVENIDA,shopping_mall,14,-31.4515412,-60.9289418,ChIJBQA5IxgTtZURYf_RkbqBUoU
Gráfica print,,0,-31.4512284,-60.928931,ChIJU0RMIRgTtZUR2LN9WeqLppY
Penelope Mujeres,clothing_store,3,-31.4511899,-60.9287976,ChIJsz3rJhgTtZURNGJHHzQ-Ejw
Carmina Accesorios,clothing_store,6,-31.4509836,-60.9288755,ChIJN3F2V_wTtZURwbYQezL2i3Y
Verduleria Y Fruteria "El Pato",,0,-31.4506848,-60.9286867,ChIJ_47viBcTtZURQJovjqAbXdQ
RF Insumos Gráficos,,4,-31.4504445,-60.9286143,ChIJzZ-ujxcTtZURS_aMI6fEntQ
Warbeast Rockería,clothing_store,6,-31.449984,-60.9286733,ChIJn296kBcTtZURD6PimXzm-Nk
Vinotecas,,0,-31.4501894,-60.9288323,ChIJeQ6VkRcTtZURsfTwZsP69Ms
Casa Benes,,13,-31.4501839,-60.928936,ChIJtbslkhcTtZURtW89tP5qdUo
Dioniso Almacén,liquor_store,38,-31.4500639,-60.9288528,ChIJDR7rkRcTtZUROpCvkn0auCI
Esperanza Renovable,,0,-31.4503193,-60.9285725,ChIJYV1jQlQTtZURSflekavISxo
La Casa del Electricista,hardware_store,26,-31.4503738,-60.9285621,ChIJDfb30xcTtZURoLR0uV93ad8
Farmacia Morelli Envios A Domicilio S/cargo,pharmacy,4,-31.4501757,-60.9285188,ChIJBQOdAz0TtZURQLfBGfJxq6Q
Marisopa,clothing_store,1,-31.4499622,-60.9286669,ChIJ6-aAkBcTtZUR-AfuBABNAHI
Liberty gym,gym,1,-31.4499588,-60.9285731,ChIJK28BNLwTtZURZPqwBrMDIzw
Jines,,0,-31.4499551,-60.9285618,ChIJG_ugkBcTtZUR6QzqAVzSjl4
Ljp Soft,,0,-31.4498873,-60.9286302,ChIJ58lLlxcTtZURgJfCQmh4WTs
Pregonero Velas Artesanales,,0,-31.4499681,-60.9284202,ChIJ38PzWX4TtZURGrVWvCzxkOQ
Cotillon El Tunel S.A.,home_goods_store,57,-31.4492203,-60.928813,ChIJ36aVuxcTtZURWC3j-JzJVOQ
Biblioteca Municipal Francisco Soutomayor,library,26,-31.4491753,-60.9287401,ChIJETzDuxcTtZURqtw_8N0COGM
Agencia Magliano,school,2,-31.4493899,-60.928742,ChIJuU2QvBcTtZURSm3BDpIJMhs
Video Light Fotocopiadora,,0,-31.4493697,-60.9288305,ChIJUSEMAwETtZURkKG_D-vnPHE
One Love,clothing_store,0,-31.4495054,-60.9285548,ChIJARx4mBcTtZURcmCvc0UdhfE
MA Salon Unisex,hair_care,28,-31.4494919,-60.9285508,ChIJMZUImBcTtZURkmAviwsa0Ss
Optimax,,3,-31.4494109,-60.9285956,ChIJ3cFKBT0TtZURq8w23mvLa60
Wiltel comunicaciones SA,,0,-31.4493619,-60.9289492,ChIJSTvAuxcTtZURjBLTdk6J8uQ
Amaranto Calzados,shoe_store,1,-31.4494505,-60.9285352,ChIJDfb30xcTtZURUJL7viBxaC8
Macel,,1,-31.4493677,-60.9286062,ChIJHeDEvBcTtZUR0DzhlbK3dww
Casa de comidas Chela's,restaurant,130,-31.4495612,-60.9282486,ChIJefoSmBcTtZURD24FA13hUSs
Suinos S.A,,0,-31.4492571,-60.9288387,ChIJJZrtuxcTtZURfSSxdDMmwtU
Backstage Indumentaria,clothing_store,0,-31.4495768,-60.9284296,ChIJIVdumBcTtZURRm8xhsFVfLU
Luis XIV,grocery_or_supermarket,2,-31.4497723,-60.9285072,ChIJZ1_XMKoTtZURvLE13sQVGb4
PIXEL INSUMOS,,0,-31.4491157,-60.9287459,ChIJ9a5GZX0TtZURD0D0eMafhAA
Alianza Real Estate,real_estate_agency,0,-31.448448,-60.9287976,ChIJu2YWsxcTtZURUHZlzQ2F1qA
Magui Nails,beauty_salon,1,-31.4492029,-60.928855,ChIJB5c3wKUTtZURAIaRRcfw_jA
Pampero Esperanza,clothing_store,73,-31.4491981,-60.9289105,ChIJXR_YuxcTtZUR5_3CbQ-nEYk
Fundación Guillermo Lehmann,museum,0,-31.4487888,-60.9283236,ChIJz9VzutITtZURtNjaxqtRUDk
a su gusto,restaurant,230,-31.4491979,-60.9285882,ChIJNYyV1mETtZURylc_RzPP-pc
Odontología Integral,doctor,2,-31.4485036,-60.9284433,ChIJebWLAOkTtZURCBnM4_s2Aa4
Nadia E Wilde,,0,-31.448392,-60.9286806,ChIJ_frlshcTtZURmdDvsqRU-OQ
Copijsud,,1,-31.4484208,-60.9285431,ChIJnQyArRcTtZUR4ddEgAphWOE
Confiteria Y Panaderia Maria Sol,bakery,2,-31.4485127,-60.9284051,ChIJD-a1rRcTtZURFSYN7PhxGbo
La Rosarina Deportes,,0,-31.4483888,-60.9286172,ChIJq7fDEVQTtZURt_BzBFrRGvk
Pistacho Estación Natural,grocery_or_supermarket,0,-31.4487212,-60.9282654,ChIJYf73t6cTtZUR0lFpubgZrOE
Nuevo Banco Santa Fe,bank,12,-31.4481982,-60.9289405,ChIJJ1oFSxYTtZURlYYSB5e0qug
Novel Técnica,,0,-31.4480485,-60.9288024,ChIJweBZW6QTtZURQK5qkKUMm0M
CHIA caleta saludable,,2,-31.4480817,-60.928903,ChIJK3R4nXkTtZUR1_2qhEePfQs
Club Pompeya,bar,1,-31.4479649,-60.9288877,ChIJzxzrqQcTtZUR1rM8WbXFMfA
Aves Trucks,,0,-31.4482693,-60.9286344,ChIJv9pKTRYTtZUR19hgx4QcFds
Premin Srl,,0,-31.4479743,-60.9289942,ChIJK9RDSRYTtZUR5zEjLgmYn_E
Cajero Automatico Link,atm,4,-31.4482835,-60.9290134,ChIJ51kFSxYTtZURrEwadHoNgqc
Escuela De Modelos,,1,-31.4483385,-60.9286127,ChIJ5W9cJ4wTtZURHL8iqEoNe08
Jossen,,1,-31.4478564,-60.9289796,ChIJ783FSBYTtZURZoEzo5zhHzc
Remises Ciudad,,1,-31.447829,-60.9289526,ChIJ44OsYSwTtZURB7DTB19QMKc
Calzados mamina,shoe_store,4,-31.4483389,-60.9284343,ChIJ6b-hrRcTtZURq48UENqCQrE
Mutual Sm Salud de Soc Medica del Departamento Las Colonias,,8,-31.4474741,-60.9287378,ChIJBQOdAz0TtZURQUfLmdCTz20
Electricidad Colombo SA,home_goods_store,86,-31.4475669,-60.9287893,ChIJ4_KduzsTtZURm5crRhtfVXI
CLOUD "Innovación",,17,-31.4472933,-60.9289259,ChIJGb4-RBYTtZURSLkNm5-qc2A
Farmacia Gamboa,pharmacy,7,-31.4472697,-60.9287059,ChIJ3cFKBT0TtZURFfipE-Ccdv0
Seguros San Cristóbal En Esperanza (Organización Pacini),insurance_agency,2,-31.4476102,-60.928891,ChIJLS_nRRYTtZUR4UdvEfi54fU
Smart On,,0,-31.4472829,-60.9289326,ChIJ1adYQRYTtZURdca8oZqVUBo
Kinesiólogos,,0,-31.4476314,-60.9288968,ChIJV5rjRRYTtZURTdpnuUAmYQ8
TRENDY Esperanza,clothing_store,0,-31.4472277,-60.9288938,ChIJHWuzYW4TtZURs_ZGqAO5oUg
Del Rey Indumentaria,clothing_store,0,-31.4476674,-60.9288204,ChIJoRlgTxYTtZURvGI1koIHcNI
Consultorios Belgrano,,3,-31.4476741,-60.9288024,ChIJ6-HfRRYTtZURV7opjmq2lkQ
Rayuela Bebés,clothing_store,0,-31.4472135,-60.9289099,ChIJS-ERXwATtZURZ_eWwUtMqVc
Quiosco La Esquina,supermarket+grocery_or_supermarket,14,-31.4476409,-60.928967,ChIJ09W7jzwTtZURFg4oavhRHwE
Cerrajería Del Sol,locksmith,0,-31.4477121,-60.9288335,ChIJVcVCTxYTtZURgBZOMwTodoU
Papelera Caberlet,home_goods_store,142,-31.4474411,-60.9291354,ChIJRVo5RBYTtZURcGzBe4BhxMk
Estudio Flash Fotografia,shopping_mall,0,-31.4476464,-60.9290362,ChIJxdt3alMTtZURqdh21Omj3tM
Lucero Analia - Odontologa,dentist,0,-31.4466812,-60.9287377,ChIJlaS4aBYTtZURPBwrn2aRuOE
Asociacion Ayuda Ni�os Especiales A.a.n.e,,2,-31.4469376,-60.9285775,ChIJgfBIaBYTtZURIxv14-d2HRg
Alberto M Aufranc,,2,-31.4466482,-60.9286255,ChIJY4q0aBYTtZURIzL4RdRT9CU
Fiel Financiera,,0,-31.4466177,-60.9285973,ChIJTXZSbxYTtZURzG64V57sMAo
Escuel Educación Especial 1328,school,0,-31.4469473,-60.9285807,ChIJVwtwaBYTtZURyAmPocnJmBo
Obra Social De Petroleros,,0,-31.4470298,-60.9287204,ChIJa4OIQhYTtZURJzly6wqH6wk
Mini Market 24hs,,0,-31.4464495,-60.9286816,ChIJAcGjbxYTtZUR9o45FTAKANw
ISE - Imágenes Sanatorio Esperanza,,0,-31.4470854,-60.9288476,ChIJh-eKi9ETtZURgIn2ycPWBkA
Centro Roma - Centro Interdisciplinario,hospital,0,-31.4470646,-60.9286334,ChIJs6Vr8fATtZURFMNUUAjbQgM
HM CIRUGIA Y ORTOPEDIA,shoe_store,5,-31.4471054,-60.928648,ChIJv33JwzETtZURKISVdol2Uk8
Remisses Belgrano,travel_agency,0,-31.4464496,-60.9284541,ChIJa5GhZRYTtZURBsxXxoU8ErI
Almacen GH,,1,-31.446399,-60.9285131,ChIJkRJlZRYTtZURHQXftOXwcfg
Mimate Belleza y Salud,beauty_salon+hair_care,6,-31.4457638,-60.9289617,ChIJb8txf30TtZUR4HUk0iS6EV8
Al Extremo,clothing_store,0,-31.4456265,-60.9288137,ChIJQewmTJETtZUR6tW543jwJpQ
Estetica Lucia Van de Velde,beauty_salon,3,-31.4547191,-60.9282319,ChIJa3p1KIQTtZURaid7BvhcK2c
FisioPilates Esperanza,gym,15,-31.454987,-60.9280458,ChIJn_wrVhYTtZURQTkgsygZn6U
Iglesia Cristiana Evangélica (Güemes 1119),,6,-31.4541863,-60.927778,ChIJ76TrHRkTtZUR42xQZA19wUU
Platero Distribuidor de Golosinas,,14,-31.4530587,-60.9279955,ChIJE-UbpTQTtZURU10rDpSmDTU
Despensa Hard Lyon,storage,0,-31.4520507,-60.928288,ChIJt2PbSRgTtZURYKZmENR6URI
�nihoul Analia Alicia,,1,-31.4516823,-60.9280278,ChIJj4ODMxgTtZURMpVo6p4buFU
Alma Jr,gym,2,-31.4517477,-60.9276919,ChIJXT2XoYcTtZURDF6m-2Ysu4s
Organización Ranallo,insurance_agency,0,-31.4513419,-60.9280653,ChIJ4U-fahETtZURk_XIXlcUNMw
Club Atlético Alma Juniors,,156,-31.4514373,-60.9278574,ChIJl619NBgTtZUR2bNFL4sPUDc
Play Televisión,,36,-31.4504425,-60.9281489,ChIJaf5GhBcTtZURzR2CvZThAZQ
Link Tv Producciones Televisivas,,21,-31.4508011,-60.9276792,ChIJY_Ew1RkTtZUR4XYVRuf_Dkk
San Ignacio estudio ganadero,veterinary_care,6,-31.4507945,-60.9279093,ChIJ1-WVMWITtZURJ4SPjWoLkxw
Bio Com,,1,-31.4503673,-60.927966,ChIJg_MoghcTtZURl1WAf2tcpRs
Luna Espacio de Arte,museum,2,-31.4503345,-60.9280124,ChIJFwX50ZQTtZURRacghpsGZc8
Laboratorio de Análisis Veterinario San Ignacio,,1,-31.4508446,-60.9278968,ChIJNRZunp0TtZURJp2ZXCLD-SQ
Ismenia,clothing_store,46,-31.4505917,-60.9277193,ChIJU8TBfxcTtZURTfJ2EuWGqhc
Kevingston,clothing_store,17,-31.4502311,-60.9281915,ChIJ3zhwhBcTtZUR-kpEXCDJkrQ
Smart Suplementos,,3,-31.4502848,-60.9278349,ChIJ471ufxcTtZURW7LE07AUI_s
Link Tv,,0,-31.4508265,-60.9276765,ChIJq1U61RkTtZURyRB-U9DWiok
Carrusel,clothing_store,1,-31.4505591,-60.9275823,ChIJVZMIfxcTtZURdA2qhT5SNps
Lo del pela,bar,0,-31.449809,-60.927824,ChIJHR74dgoTtZURNm2UmRozGA4
Club Social Aaron Castellanos,,216,-31.449623,-60.9282235,ChIJtcZgmBcTtZURq2orPxldeCE
Figueroa & Luque Servicio Tecnico Reparacion Camaras Fotograficas,,1,-31.4494709,-60.9280926,ChIJBQOdAz0TtZUReStzrE5M6dI
Museo "Hector Borla",museum,33,-31.4492666,-60.9282045,ChIJUzTboxcTtZURa49wPQ1W2JE
Estudio Lombo & Denner,,6,-31.4490278,-60.9281759,ChIJb0FlpBcTtZURXS43JZewCEc
Mch Cosmiatria Pédica,,0,-31.4493325,-60.9279677,ChIJud03oBcTtZUROmYo7ftcZUM
So Sweet- Candy Shop,,3,-31.4491971,-60.9278231,ChIJfVx_ChcTtZURJIPoj2uvbGs
Joyeria y relojeria engler,jewelry_store,34,-31.4493574,-60.9278438,ChIJDfb30xcTtZURuWyrmV5ae5U
Santander Río,bank,13,-31.4485149,-60.9279941,ChIJCylVFLyptZURMmZQmAo60nM
Iglesia Universal del Reino de Dios,,0,-31.448065,-60.9280796,ChIJh3jsVBYTtZURTzpg8yKM_Pw
Directo al paladar,cafe,46,-31.4484644,-60.9280065,ChIJ0VBIhpsTtZURKNDA19ZruYE
Hola Grafica,,6,-31.4483679,-60.9282784,ChIJm88irBcTtZURtnp9m2NQSiY
Peluqueria Gladys- peluqueria unisex y maquillaje-,hair_care,28,-31.4482879,-60.928053,ChIJJRVO9D0TtZURE78NV8G3LPI
ILModa Accesorios,,2,-31.4482117,-60.927969,ChIJY8OJPRgTtZURlZoisZqp8fo
Margarita Esperanza,clothing_store,6,-31.4482073,-60.9279041,ChIJJ9mjqxcTtZURyJKEMToKsJE
La Terraza de Mayco,night_club,0,-31.4481954,-60.9278905,ChIJfxLVr48TtZURFpVQiocO6sE
estudio Colombo & asociados,,1,-31.4481021,-60.9278194,ChIJ5aEHABcTtZURH89fHXlMQZA
Simmons,furniture_store+home_goods_store,0,-31.4477233,-60.9280037,ChIJPR_RVRYTtZURDE9xsSDwufM
Kodak Foto Color,,0,-31.4478078,-60.9278671,ChIJy83xVRYTtZURP1xrjYTwCuM
CARMIN,home_goods_store,46,-31.4476659,-60.9278636,ChIJregiVhYTtZURimaUIsfDuCg
Grupo BS-PREMIN SRL y Estudio BS,,1,-31.4477577,-60.927768,ChIJKSLdVRYTtZUR9kpcJoyIJfs
Miss Telas,home_goods_store,95,-31.4469849,-60.9275852,ChIJHetS_hUTtZURXM6xTS3doWI
Ruta 40,car_repair,26,-31.4472813,-60.927633,ChIJl4xq9hYTtZURdNEleiI1X-k
TDL LOGÍSTICA,,0,-31.446585,-60.9281212,ChIJXTyUiu4TtZURns7nqCJSMrI
SONIDO E ILUMINACION AARON CASTELLANOS,home_goods_store,11,-31.4541356,-60.9270217,ChIJBQOdAz0TtZURYEWB_mDeups
Colombo Müller,school,0,-31.4540587,-60.9273692,ChIJ_YlM8-YTtZURTvs5o7uAjac
Brown Y Guemes,laundry,2,-31.4540629,-60.9273213,ChIJ9bdw9PgTtZUR8VT1CWDnJ4o
Inocencia,clothing_store,1,-31.4541356,-60.9270217,ChIJB1t3FxkTtZURDfpIk0LZ8pw
Veterinaria Geminis,veterinary_care,51,-31.4533548,-60.9271494,ChIJYaQ7BhkTtZURQ_x7vUNRnt0
Bochas Alma,night_club,0,-31.4514699,-60.9275357,ChIJdwj1xMcTtZURcpXVymtZIYs
Estructuras Navarrete Galpones,,0,-31.4514581,-60.9271871,ChIJQ_NHzxkTtZURLN5u8rHnP5s
Transporte Rivero,,1,-31.4514635,-60.927163,ChIJFzpPzxkTtZURYOooeCL-_jA
Sahara Lencería,clothing_store,0,-31.4506475,-60.9270876,ChIJtcP61xkTtZURFZwyEB-yWpc
NAMIBIA Helados Artesanales,,1,-31.4506562,-60.9270509,ChIJ3dRHCpcTtZURXBMOIeU6v4o
Hama Rotisería,restaurant,62,-31.450601,-60.9271088,ChIJ23JG5BkTtZUR6zurQNBugsE
Lg Eventos Gastronómicos,,0,-31.4506313,-60.9270322,ChIJ7foz2BkTtZURCML4LCz4hug
Despensa Once,,5,-31.4504747,-60.9274807,ChIJieJ5fhcTtZUR1RSzWRh_ThA
Marbella Viajes - EVT 14471,travel_agency,27,-31.4505932,-60.927074,ChIJLWYm2BkTtZURED71UKEvbX4
niu.sport,,0,-31.4503427,-60.9274944,ChIJW8PkTvsTtZURYypn71Wr8Tk
Caja Municipal de Prevision Social,,0,-31.4493858,-60.9271988,ChIJDfb30xcTtZURk0eUk6GQeT0
Estatua al Bombero José Luis Maestro,,0,-31.4495748,-60.9273455,ChIJTyNxblYTtZURtSPgTTFHP0o
Maxikiosco Alberdi,,0,-31.4493206,-60.9274527,ChIJDZcIcxcTtZUR5H_-ZMKajYQ
Jardín De Infantes Nucleado N° 59,school,0,-31.4494036,-60.9272166,ChIJzT1ZchcTtZUR1MfD-MJGqnM
Escuela Nº 314 José de San Martín,school,13,-31.4495219,-60.9272066,ChIJE12HcRcTtZURQG6zqCf7zfw
Ing. Agrimensor - Germán Bock,,5,-31.4486948,-60.9272385,ChIJwR62DxcTtZURLCE5ityPThw
Servicio de Anatomía Patológica Veterinaria Esperanza (SAPVE),,0,-31.4490198,-60.9273529,ChIJexTsKOoTtZURH2hZ0MR6bv4
Partido Democrata Progresista,,0,-31.4485135,-60.9271939,ChIJz8JgBRcTtZURCPsun5jwTvA
Escuela Taller Manual N°3" Houriet",school,0,-31.4487984,-60.9269721,ChIJ6Vg7CdsTtZUR6IYapo9gGTk
Walker Damian N,,1,-31.4465221,-60.9274986,ChIJMZ2CixYTtZUR9EeWys4MEik
Lavadero 39,car_wash,0,-31.4469636,-60.9271241,ChIJ5SlkuF0TtZURTuCQuJrqH9Q
Friomax Refrigeración,,0,-31.4470008,-60.927127,ChIJQQDk8RYTtZURzCaloKQHz80
Tintoreria Macri,laundry,4,-31.4469378,-60.9270141,ChIJDfb30xcTtZURlFgL2ImGzWc
LM10,,0,-31.4469525,-60.9270223,ChIJv5ET7hYTtZUR90dhzenZYw4
Librería Lyris,book_store,12,-31.4460237,-60.9274889,ChIJS_xhKBQTtZURi6N9EMzV1R8
PRISMA INGENIERÍA,,0,-31.4461242,-60.9273975,ChIJMbrkJ8sTtZURdHFqUe4YmGk
Agencia La Quiniela,,0,-31.4461037,-60.9272647,ChIJ1_8KjxYTtZURX4-Gy89arAw
EPE Energía de Santa Fe,,44,-31.4459352,-60.9273405,ChIJCzqRhRYTtZURhShXQyOM3ps
Sardra Hilgert Propiedades Inmobiliaria,real_estate_agency,0,-31.4461806,-60.9272886,ChIJkSjljhYTtZUREHxLJq2UknI
AMEL ALARMAS SISTEMAS SEGURIDAD,shopping_mall+electronics_store,4,-31.4456389,-60.927251,ChIJsbh9gxYTtZUR7P6sZ0KjMN0
ELLAS,clothing_store,0,-31.4457817,-60.9270049,ChIJOcvTQy8TtZUROv5tooEuBzA
Lavanderia Burbujas,laundry,0,-31.4546164,-60.9264157,ChIJu_-vOBkTtZURBU6VLw6YYE8
Pelos Al Viento,,48,-31.4540771,-60.9263205,ChIJ68GoiBwTtZURQ9LLyHzz6xI
Rotisería ver-ni- fer,restaurant,0,-31.4543663,-60.9263601,ChIJc4Bjp4oTtZURnWEgJclAVII
Carnicería Dino's,grocery_or_supermarket,3,-31.454313,-60.9262611,ChIJF4AuuUoTtZURKQQNFD1_THg
SIEC Informática,electronics_store,25,-31.4532848,-60.9261766,ChIJ11UychkTtZURiy59BQ_kgKg
extreming car,car_repair,0,-31.4534624,-60.9264243,ChIJixOnGXATtZURvCohORPZ_Os
Centro Médico De La Ciudad,,5,-31.4524289,-60.9264204,ChIJ3cFKBT0TtZUR1MN-LeGogkQ
Estela Cura,doctor,0,-31.4524229,-60.9263933,ChIJi3IMohkTtZURRKquKOXH0Vc
Clinica de Ecografias,doctor,0,-31.4524227,-60.926393,ChIJGeQOohkTtZURLY1_PO-FcB8
Galia Store,,0,-31.4524668,-60.926343,ChIJq2GEmBkTtZUROHyARvWm29M
Centro Jubilados Y Pensionados de Esperanza,,16,-31.4525639,-60.9261979,ChIJPy3VmBkTtZURaL3yjLzDITA
Farmacia Bär,pharmacy,2,-31.4524601,-60.9262166,ChIJE7UEKRkTtZURs6jPukLkQks
Consultorios Sagrada Familia,doctor,0,-31.4516477,-60.9263333,ChIJ1XoHVCwTtZURj262JjSMVbs
ComunikArt,shopping_mall,26,-31.4515008,-60.9267062,ChIJ5ZUxwRkTtZURCHqjKY0RzGM
Ministerio de trabajo y Seguridad Social,,5,-31.4515497,-60.9263451,ChIJ4y9-cIYTtZURT8-8_hTXCI4
Psicóloga Lic. Vanina Pontarelli,doctor,1,-31.4516154,-60.9263211,ChIJ09inOn0TtZURKNrMGaOL2CU
Donnet Optica,,1,-31.4506176,-60.9263155,ChIJt6Bl5xkTtZURbC3-6mZN4lY
Provel Electronica,electronics_store,12,-31.4507634,-60.9262683,ChIJhWIM5xkTtZURRk78GtrjQmI
Salón Unisex,hair_care,0,-31.4499174,-60.9266075,ChIJZehUZhcTtZURw5-dtWSfva8
Transporte 13 De Agosto,,0,-31.4497234,-60.9266526,ChIJm5mhaBcTtZURtX5qqyvS9e0
Remises Avenida los Colonizadores Sh,,6,-31.4498501,-60.9269316,ChIJBy1NAz0TtZUR3vy7KNDnafE
Queen's,clothing_store,0,-31.4498219,-60.9269294,ChIJm5mhaBcTtZURNqcnQIJ9vOg
La Semilleria,,1,-31.4499535,-60.9263918,ChIJVxf1XRcTtZUR1ZYtfgg1UB8
veni que lavamos,laundry,1,-31.4496159,-60.9267867,ChIJg_F8bxcTtZUREl0nJW62YUA
Abba,,4,-31.449828,-60.9262169,ChIJDfb30xcTtZURua3-1D1PTQg
Circulo Odontologico Santafesino,dentist,0,-31.448506,-60.9269918,ChIJoevtHBcTtZURdwt82yCfxNg
Cira - Kinesiología y Fisioterapia,doctor,0,-31.4484704,-60.9269595,ChIJaRmS3sMTtZURkfYO-Jg91hU
Happyfit,,0,-31.4482743,-60.9265349,ChIJZzZSGBcTtZURsn3qsicV7Sw
Kiosko Ramon,grocery_or_supermarket,0,-31.4469221,-60.9267198,ChIJO3rXa-wTtZURR-PUh1qbERU
La Economia,,0,-31.4469818,-60.9263957,ChIJGwUi6BYTtZURwKaf1vFRjxo
Organizacion de Eventos Carmen Servicio Gastronomico,,1,-31.4465817,-60.9265205,ChIJt8n76hYTtZURYNIj0ogNJ6w
Catering En Esperanza,,0,-31.4465855,-60.9265026,ChIJNYfsWxMTtZURYGYsBvuqNZ0
Antón; la juguetería,,2,-31.4466199,-60.9265127,ChIJtWpX6hYTtZUR2-uBARMBZhU
Los FERNÁNDEZ 20,,16,-31.4461884,-60.9263571,ChIJrSBCyBYTtZURttK2RW52jgE
Oasis Pileta Cubierta Climatizada,,26,-31.4528685,-60.9255376,ChIJ3cFKBT0TtZURrObLPLcwQmE
Lubricar,car_repair,7,-31.4526481,-60.9257293,ChIJDfb30xcTtZURhWHeE1aHLy4
Avi S.r.l.,,0,-31.4524656,-60.9258126,ChIJKzJ-mxkTtZURITBN9-dqklw
Haru Peluquería,hair_care,28,-31.4508279,-60.9255219,ChIJfURI8BkTtZURAxhlwHNH-Pk
Seguros la Segunda de Donnet Hugo Y Sergio,insurance_agency,15,-31.4506899,-60.9260292,ChIJS7wR5hkTtZUR_CFbmoFHr3A
Planeta Pizza,restaurant,0,-31.4508206,-60.9259602,ChIJY3vv5RkTtZURyiLTXndwUSU
Emblema,clothing_store,28,-31.4508478,-60.9261544,ChIJDfb30xcTtZURHN0NNjdLG7s
Rotiseria HAWA,grocery_or_supermarket,0,-31.4507853,-60.9258106,ChIJ8eJ25RkTtZUR_Qw8W0L_o34
Corazon De Melón,,0,-31.4507115,-60.925916,ChIJb4e15RkTtZURug65_4U8Jw4
Chefferisimo,meal_delivery,70,-31.4500665,-60.9259639,ChIJm8tgWRcTtZURp8zqS7UEqmI
Impresos San Cayetano,,2,-31.4500974,-60.9258302,ChIJf1O9WRcTtZUR43AjR-o7I_s
Frutas Y Verduras El Hormiguero II,,0,-31.4500192,-60.9259176,ChIJ_3kiWRcTtZURgPD8P0b9noA
Ucoes,,0,-31.4499961,-60.9260181,ChIJE_XKXhcTtZURMhTbzY2fUTc
Centros De Educación Física En Esperanza,,0,-31.4499637,-60.9260694,ChIJ5TW7XhcTtZURno6alkHIFCM
El gran hermano,veterinary_care,31,-31.4501321,-60.9256459,ChIJHUq9ARoTtZURI8HgizjtR0s
Kiosco Fantasia,,16,-31.4487252,-60.9255751,ChIJTzVoG3sTtZURY9cvOCHABm4
lavadero MARVA,laundry,5,-31.4484145,-60.9260143,ChIJ3bTlOxcTtZUR3cgEkv-qrH4
ORL Estudio de Arquitectura,,6,-31.4472019,-60.9259182,ChIJKRaL2xYTtZURvAuFI9aRCjc
Corralon Las Colonias,hardware_store,27,-31.4470895,-60.9259188,ChIJBQOdAz0TtZUR-wDF9JT-PPw
Club Atlético Almagro,,238,-31.4465251,-60.9260652,ChIJ9Q8lwRYTtZURWHJpg3A3WxI
Shayna Peluqueria,hair_care,0,-31.450435,-60.9253297,ChIJXzpy6a4TtZURaiZFOA6ZyVc
Magnolia,clothing_store,4,-31.4508477,-60.9252114,ChIJWcv50AwTtZURSc7BaCr6cZI
Hogar Compromiso Asoc Civil Sin Fines de Lucro,,4,-31.4509606,-60.9254251,ChIJv9YM8RkTtZURIQn-tsHKlDU
Zapateria Pituco's,shoe_store,0,-31.450219,-60.9253057,ChIJxfUX_hkTtZURAGPc09zRvFg
Estudio Don Jose,,1,-31.4509912,-60.9252018,ChIJKdSj9hkTtZURUAuityb3sus
Meridas accesorios,shopping_mall,3,-31.4502161,-60.9250513,ChIJURqMAxoTtZUR4cyfnjFh7CY
Puy,,0,-31.4498635,-60.925024,ChIJE8IZVRcTtZURtBHqB3AozDI
Punta Pié,,9,-31.4498924,-60.925605,ChIJMYfmVxcTtZURaJ1lBwgPZqk
Viejo Almacen,convenience_store,1,-31.4500209,-60.924953,ChIJDfb30xcTtZURKvH6qbLIsvk
Pinta Picada,,0,-31.4500621,-60.9249253,ChIJ7yMkDLsTtZURAWBcUpGxJ7Y
Estudio Jurídico Jacob,lawyer+accounting,0,-31.4500621,-60.9249253,ChIJdXaRP1kTtZUR7Xm4moVPJFQ
Francesca Store,clothing_store,0,-31.450154,-60.924917,ChIJrzqegJcTtZURg_Ws732oUOY
Iglesia Adventista del Séptimo Día - Esperanza,church,5,-31.4491681,-60.9250138,ChIJE63tshATtZURw8gY0utH0_8
Club A Belgrano Bochas,,0,-31.4487942,-60.9250593,ChIJ5SDyShcTtZURq988L5n_f08
Taller De Pintura Peresutti,,0,-31.4485346,-60.9254445,ChIJT2feNhcTtZURRu5ORltCVsY
Syna Shoes & Handbags,shoe_store,0,-31.4485895,-60.9252048,ChIJT2nJNRcTtZURFE0VZbo1CXc
AXIOMA Esperanza,,2,-31.4486062,-60.9255211,ChIJkUuNm-MTtZUReZYaqP1jMUE
Cachito de Amor,,4,-31.4487071,-60.9251586,ChIJX7iJNRcTtZUR_ytp--yDqBU
Polleria " Los Pollos Hermanos",grocery_or_supermarket,10,-31.4486439,-60.9250003,ChIJD0-fShcTtZURmQQCVD4IRU4
Las Cuatro B,,0,-31.447761,-60.9255266,ChIJEcXDKBcTtZURQq3O0efaFr4
Frigorífico "Las 4 B",,1,-31.447761,-60.9255266,ChIJ1ckVD44TtZURoYrPyfK0Sqo
INK Studio,,33,-31.4475037,-60.9249918,ChIJv7lD1RATtZURcFubv-7HHM8
Vueltas & Piruetas,,0,-31.4471646,-60.925375,ChIJcSKJhzcTtZURHSC04OBYXpc
Angel Amilcar Chesa Carnes Premium,,5,-31.4472206,-60.9252624,ChIJ7ZIm1BYTtZURiy_INOokZI8
CERVEZA ARTESANAL AMADEUSS,,6,-31.4472368,-60.9253633,ChIJCS1x0_MTtZURA0aTcr_jOlM
Mundo Sport,,3,-31.4484605,-60.9247352,ChIJ3cFKBT0TtZURMUU7sLfkTEQ
Lady Gloria Peluquería,hair_care,7,-31.4476139,-60.9242857,ChIJiSB12hATtZURXugq8AsuMjw
Agua-Soda Burbujas,,1,-31.4536218,-60.9408664,ChIJBQOdAz0TtZURhxIOGTaHQeA
La ochava,,3,-31.4535186,-60.9416603,ChIJ8QWoGRQTtZURwZ4t1dYwplE
Autoservicio,grocery_or_supermarket,0,-31.4534797,-60.9416597,ChIJDV77NPATtZURJkWlmlqQobk
M.I.T.E.,,10,-31.45405,-60.9405703,ChIJWd92NCUTtZURUzFOZVKCyiI
J Y E contrucion,,0,-31.4545873,-60.9412542,ChIJ43sc35oTtZURHzzASGUldjQ
Electronica AV,,0,-31.4545422,-60.9407132,ChIJDyLdhYoTtZURHfuk-0FtPHk
Wwwelecricidadyconstruccion.com,electrician,0,-31.4543238,-60.9421351,ChIJEYL9d2ETtZURUT8QbE8PMJQ
Aromas,,0,-31.4528386,-60.9410104,ChIJFyptvzoTtZURdrzFyya_kVk
Silvia - creaciones exclusivas,clothing_store,3,-31.4526448,-60.9418143,ChIJTftNZ0QTtZURQo7Mh7I5Mdw
Nuter S.r.l.,,0,-31.4516214,-60.9410053,ChIJZVldizoTtZURemnv3_sDw8M
Autoservicio Don Oscar,supermarket+grocery_or_supermarket,8,-31.4510814,-60.94078,ChIJYfL0BB0TtZURxkOYye5GPYo
Zig Zag - Bordados,,1,-31.4515044,-60.941071,ChIJ3XnnObsTtZURCZHH0ln_5-A
Taller Auto,car_repair,3,-31.4509473,-60.9407634,ChIJl554XjoTtZURUuPyv7cyCsk
Wet detailing,car_wash,1,-31.451443,-60.9418878,ChIJkdMA_AITtZURhBMmcElPtAU
Colmenas Ju VI Lu,,16,-31.4491376,-60.941456,ChIJaQK9GToTtZURWjDGZrxb-2Y
Carpintería Capeletto,,0,-31.4491175,-60.9416245,ChIJG-B_YJwTtZURNURfzMFKVRE
SOBRERO MUEBLES,,1,-31.4545095,-60.9397941,ChIJ0QibJiUTtZUReUpt2r0wniM
Agencia de kiñela,,0,-31.4544603,-60.9398575,ChIJcwM9bxETtZURIzZjZMJZdvI
El gordo,storage,0,-31.4544003,-60.939957,ChIJP1Em33ITtZURh-LZ0i0opPU
Lóvero Aberturas,,4,-31.4549138,-60.9394376,ChIJdU0R4zATtZURgs3Kyafm9iM
Tienda imagínate,clothing_store,0,-31.4539095,-60.9397622,ChIJHYW-kuUTtZURkp1ufvZRJTg
María Luisa Telas,shopping_mall,37,-31.4538471,-60.9396563,ChIJf9bbpWITtZURxumrMKr3pXk
Futbol 5 FC,,6,-31.4530009,-60.9400346,ChIJ_VkqFLgTtZURTYkgaGHz-sk
Yo,,17,-31.4531732,-60.9394135,ChIJt9K8HS8TtZURncnlt0BZ0NI
Carpintería,,0,-31.4537562,-60.9393583,ChIJX0HVFE8TtZURF9W5Giv170A
Asociación Personal Municipal,,0,-31.4527563,-60.9391635,ChIJ035ffZkTtZURncCxnS9YhYA
Club Atlético Unión de Esperanza,,570,-31.4521619,-60.9401385,ChIJBVIX5joTtZURNBeK8k4QrBM
Salon Club Union,night_club+bar,54,-31.4512751,-60.9399151,ChIJp309-ToTtZURXjX5C9102rc
Placares En Esperanza,,0,-31.4514599,-60.9393016,ChIJZ_jjAjsTtZURFGEeAK_JZX4
DonAta Copias,book_store,7,-31.4522217,-60.9392057,ChIJBT0u-KgTtZURym-GJQrluXY
Calvo,,0,-31.4514037,-60.9389548,ChIJoRfdBDsTtZUReEBvoK7Utko
La Bandejita- Esperanza,,2,-31.4504843,-60.939594,ChIJVdjiUjoTtZURiJrlSnqCGOw
Estudio Contable Lang Victor Manuel,accounting,0,-31.4498728,-60.9394652,ChIJvaQ0SzoTtZURUprcw6Kmx_w
El Faro Alquiler de Enseres Para Fiestas,,5,-31.4505947,-60.9390818,ChIJsTraTDsTtZUR-w-TcnI-fk0
Arnodo Juan Carlos Vehiculos,home_goods_store,1,-31.4486228,-60.9397598,ChIJl8LFKzoTtZURnRjwtYcqx1Y
DB Electromecánica,,3,-31.4492257,-60.9393945,ChIJF3dbZPUTtZUREL817aeCkK0
Iglesia Evangélica Bautista Esperanza En Jesucristo,,2,-31.4487364,-60.9389498,ChIJzbKv0TsTtZUR9hYTNcXlZdM
Iglesia La Casa Del Padre,church,8,-31.4487932,-60.9388741,ChIJmZEw0DsTtZUR2J0VODuJ_sk
Valenti,,3,-31.4475962,-60.94007,ChIJu0NHmjkTtZURCflw9QyR-L0
Ferreteria Jullier,hardware_store,11,-31.4471603,-60.9396028,ChIJSd6inzkTtZURrDeftxMB9LE
DISTRIBUIDORA KINEN,,4,-31.447119,-60.9394937,ChIJEfYkWM0TtZUR0zs_iQWs8uY
Bicicleteria Kappes,bicycle_store,31,-31.4477649,-60.9407839,ChIJ3VuIKh8TtZUR734Z_PN_TQs
Android Central,,13,-31.4464739,-60.9404689,ChIJgbvfsDkTtZURaRKGU_XacXE
Punto laser,,7,-31.4465786,-60.9405022,ChIJgx66sDkTtZURNilWSnB2aFA
Creaciones Nelly,clothing_store,1,-31.4465126,-60.939889,ChIJbULxpTkTtZUReirJ7lAHUmU
Despensa Norma,grocery_or_supermarket,2,-31.4465139,-60.9400664,ChIJ0TqJrzkTtZURpR6X7BQV52M
LA DOÑA ROTISERIA - EL PLACER DE LA BUENA COCINA - ENVIOS A DOMICILIO,meal_takeaway+supermarket,169,-31.4465012,-60.9403567,ChIJBy1NAz0TtZURhwb9aWpCIbc
Dav Ari,grocery_or_supermarket,0,-31.4466115,-60.9402909,ChIJNXKT8T0TtZURC8c1AkObqB4
Distribuidora Dav Ari Lacteos-fiambres-pastas-margarinas,,0,-31.4466115,-60.9402909,ChIJBQOdAz0TtZUR5y_itUbcdk8
Clínicas,,0,-31.4466074,-60.9403075,ChIJpxScujkTtZURhIJqykUx6N0
Agencia TENEFE,,1,-31.4464535,-60.9405525,ChIJE8vStjkTtZURYqJrv7XQAFA
Gimnasio del Colegio San José,school,0,-31.4460086,-60.9391443,ChIJz3d0WxITtZURVJnrW3lxd9c
AQUARELLA CONSTRUCCIONES S.A.,,4,-31.4463977,-60.940795,ChIJ2U2ykxcTtZUR_nmQPd480ZQ
Verduleria Sanvier,grocery_or_supermarket,86,-31.4463342,-60.9408247,ChIJneLptTkTtZURxq67UARxHJM
Jarox,,0,-31.4463852,-60.9409976,ChIJxa0XyjkTtZUR3FM6zJEf26E
plaza renacer,park,23,-31.4541595,-60.9386211,ChIJgZpTFGETtZURqm0n0WjtOOE
E.E.T.P. N° 644 "Gregoria Matorras",school,7,-31.4516219,-60.9384579,ChIJa05HETsTtZURZIj7Em2GY7w
Sommiers En Esperanza,furniture_store+home_goods_store,0,-31.4527389,-60.9383115,ChIJWxA7NzsTtZURROBYhjXEIw0
Colchonería Jona,home_goods_store,25,-31.4527389,-60.9383115,ChIJzwQ7NzsTtZURv84EYVoCcAI
FESIM Federación De Sindicatos Municipales,,0,-31.4524113,-60.9390049,ChIJb06TIzsTtZUR_2HlH8E6YWA
Masajes profesionales,spa,0,-31.4529565,-60.9385349,ChIJExCObP4TtZURpOlY1U2sdi4
Escuela N° 53 "2 de abril",school,0,-31.4517372,-60.938011,ChIJqSvuU8kTtZURxgeuUqtRJNw
Escuela Número 1075 Centenario de la Colonizacion,school,13,-31.4517311,-60.9379952,ChIJY3_VajsTtZUR_5Z6KHRDb80
Aberturas Pixel Aluminio,,0,-31.4512219,-60.9380117,ChIJBy1NAz0TtZURP5AVJLlz1b4
JF Distribuciones,,1,-31.4508805,-60.9386857,ChIJC-hV5r0TtZUR2ZDKns2lbjI
Calvo Refrigeracion,,0,-31.4514941,-60.9380187,ChIJGWNKEzsTtZUR0WZLJw2x4x0
Suyay,,21,-31.4515745,-60.9379641,ChIJ8xok9qITtZURQRcW4uxXLLE
Super eterno,supermarket+grocery_or_supermarket,20,-31.4500351,-60.9385349,ChIJVTr2DDYTtZURVS5IKqzWVJo
Heladeria yampi,,7,-31.4491565,-60.938143,ChIJjYcGwTsTtZUREUeGJPJun_o
Farmacia Borgogno,pharmacy,5,-31.4490556,-60.938287,ChIJDfb30xcTtZUR755v5Sy9Rs4
Tapiceria Rocco,furniture_store+home_goods_store,0,-31.4500089,-60.9375492,ChIJX-UCNNUTtZURJU0NRIfakGA
Mon. II.Dpto 23;Esperanza;Santa Fe,,7,-31.4489955,-60.9378697,ChIJY5b7wTsTtZURMoMtMNlrXkQ
Alimentos del Litoral Forrajeria,,2,-31.4480186,-60.9383758,ChIJm5gdYjkTtZUR6V9CD9HbEuc
Be Fit Indumentaria,clothing_store,2,-31.4481792,-60.9375019,ChIJL_2JKUsTtZUR9OIwE35kBos
ISP N° 8 "Alte. G. Brown" - Anexo Esperanza,university,2,-31.4465741,-60.9376675,ChIJ4QW7PzkTtZURgMi3vVWR-A4
Parroquia San José,church,6,-31.446858,-60.9385232,ChIJFR67CzkTtZURqiuGL6ssFyM
Pluspagos Santa Fe Servicios,,22,-31.4469878,-60.9380997,ChIJ81FnaxATtZUR5gqRNy7qprw
Capilla De Adoración Perpetua "Corazón Eucarístico De Jesús",church,32,-31.447129,-60.9377691,ChIJjSYPQzkTtZURB7TMUFM7qNk
IV Prov de Santa Fe Ministerio de Educacion Zona,,1,-31.4470767,-60.9375673,ChIJqyWSRDkTtZURlXw_lU59xqE
The West,bar,0,-31.4470997,-60.9375431,ChIJ5VvZ3dkTtZURzj_TUZIkxMw
Animal Center,pet_store,16,-31.447001,-60.9375136,ChIJozRFRDkTtZURZbx861ALDrM
Barsovia,clothing_store,53,-31.4474635,-60.9376878,ChIJz9VxXDkTtZURwjUeILDppCw
Colegio San Jose,school,26,-31.4454916,-60.9377807,ChIJ3cFKBT0TtZUR_AY53mg1Bbc
AXION energy,gas_station,258,-31.4404904,-60.9380543,ChIJ7c1CexgTtZURdMB9r9PirJY
Indira,clothing_store,5,-31.4545821,-60.9370183,ChIJU4PemCQTtZURo5XCSAZrvis
Temporarios Esperanza Rodri,,0,-31.4543963,-60.9371745,ChIJb88hmSQTtZURQTiHtl8lf2Y
Flaviani Javier,lawyer,0,-31.4540229,-60.9368772,ChIJ3cFKBT0TtZURoMUA9G-Auw4
9 de julio,lodging,1,-31.4537001,-60.937269,ChIJVTvWa6MTtZURczN4Ppofwm8
Verduleria La Bandejita,grocery_or_supermarket,116,-31.4532437,-60.9367284,ChIJp4yCqSQTtZURysRgNSzNF8A
Alquiler De Sillas En Esperanza,,0,-31.4530125,-60.9375002,ChIJg5fcTDsTtZUR1fWJnsaFaFA
La Nueva iris,grocery_or_supermarket,2,-31.4532801,-60.9366484,ChIJQRNIjLkTtZUREPVwGHvqNsE
La Bandejita Verduras Procesadas,,1,-31.4536324,-60.9367573,ChIJ44pJpiQTtZUR-OvzlMhuDNo
K'MPA Veterinaria,veterinary_care,0,-31.4529383,-60.9364035,ChIJOTfQdv0TtZURI5kNWdeT04c
Mecanica Morandin,car_repair,13,-31.4526884,-60.9364467,ChIJG2jyqjwTtZURb0hsiClSBlU
Despensa "la bruja”,grocery_or_supermarket,0,-31.4526669,-60.9364596,ChIJC7X2FtMTtZURr3TwaNSkJpo
Herrería Schneider,,0,-31.4520062,-60.9367189,ChIJ924Q0WQTtZURFhEREkRSmO0
PERCO; Ricardo - Oficina,,0,-31.4514915,-60.9366402,ChIJxZNCYDsTtZUR5y5w-ab5XwY
Instituto de Idioma Inglés,,1,-31.4511289,-60.9369325,ChIJm1UVhe8TtZURSb6fAAClu2Y
Metrans S.r.l.,,0,-31.4510448,-60.9371079,ChIJ-ZwpZTsTtZURqTAIt51N7HU
Muebles Creativos HH,,2,-31.4510448,-60.9372904,ChIJUQ0MczsTtZURsczu-Sw3EFc
MB Automotores,car_dealer,73,-31.4500979,-60.9374332,ChIJBy1NAz0TtZUR8LFlOWuCp5I
Mehring,furniture_store+home_goods_store,32,-31.4503594,-60.9361466,ChIJrb3IhjwTtZURNsPC3vFGIMI
Imprenta Mimeocop SH,,3,-31.4501818,-60.936924,ChIJQ48pgjsTtZURfbeLPunFKXs
Entrenamiento Funcional,gym,1,-31.4502606,-60.9366907,ChIJGQ0ogDsTtZURAtHMWZ1jl3Q
Farmacia Longoni,pharmacy,16,-31.4502122,-60.9366342,ChIJaS8YgDsTtZURIj01Kex4b5g
Club Caza y Pesca "Ciudad de Esperanza",,13,-31.4499693,-60.9366028,ChIJ8yG7gDsTtZURoFagg2loZzk
Hulk Gym Esperanza,gym,45,-31.4498748,-60.9366938,ChIJXx-7gDsTtZURUM8gI683XKQ
BOBINADOS MARIO SH - BOBINADO DE MOTORES- VENTILADORESINDUSTRIALES,car_repair,4,-31.4488394,-60.9371764,ChIJBQOdAz0TtZUR3I9R7tE6Re0
Plaza Gerardo Mhering,,0,-31.4488079,-60.9373754,ChIJwVKtfHQTtZURDgpQxECk-mY
RM_GYMNASIO,gym,4,-31.4491572,-60.9374435,ChIJZYaOCcsTtZURz1UKAQVLWBE
Aires Serranos,home_goods_store,1,-31.4494463,-60.9373603,ChIJp7whkjsTtZURSEpLXENT3Yk
Paralelo,,0,-31.4483662,-60.9370543,ChIJ25-lHgYTtZURFUUVgAG2pHk
Pescaderia Punta Cayasta,grocery_or_supermarket,95,-31.4483759,-60.9369333,ChIJDfb30xcTtZURsICNI1k3iMg
Tu Sue�o,,1,-31.4483675,-60.9368777,ChIJ42hX9zsTtZURCK3V5MCele4
G+G / Arquitectura e Interiorismo,,1,-31.4490569,-60.9363167,ChIJJeIJww0TtZURvWn9Pzv4BnY
Silvana Peluquería,hair_care,6,-31.4484796,-60.9362753,ChIJDWJCCTwTtZURoBOg5tbVbhY
Colegio Nuestra Señora del Huerto,school,5,-31.4470841,-60.9362665,ChIJX6FdV_0RtZUR_-kb4CpUkA0
Pianetti Seguros,insurance_agency,0,-31.4473498,-60.9371818,ChIJW8R17XUTtZURoUimgbwAgU8
Farmacia Sergio Schneider,pharmacy,6,-31.4473566,-60.9372148,ChIJu7OWUDkTtZUR45sjhXMlClk
Conductores Eficientes,,0,-31.4479829,-60.9367797,ChIJsXf6yp4TtZURVJ3uEWumci4
Cruzmar Srl,,1,-31.4468885,-60.9366038,ChIJ1Uo4TTkTtZUREx1PuFb4w7k
Numa,clothing_store,86,-31.4468207,-60.9367275,ChIJYZblvakTtZURwcWPVqRUQ3g
Humoller Hnos Gas,,5,-31.4465228,-60.9370501,ChIJBQOdAz0TtZURQ_ZBDTRX8O8
Sorpresa! Almacén didáctico,book_store,45,-31.4466564,-60.9366922,ChIJybASSzkTtZURH71lLHfj5uo
Scelza Melina Soledad,,1,-31.4466005,-60.9365128,ChIJBy1NAz0TtZURlMCxnYD_Kz4
Organizacion Scelza,insurance_agency,0,-31.4466344,-60.9365233,ChIJK2zf3wgTtZURkA7UU7o_CX8
N Y M Propuestas Inmobiliarias,real_estate_agency,5,-31.4467736,-60.9365479,ChIJfbossz4TtZUR-rKSVgWdfLE
Carniceria Hereford,,11,-31.4457156,-60.9362399,ChIJBy1NAz0TtZURGJU_0_JO-38
Hogar de Ancianos Dr Aldo M Bustos,,5,-31.4434173,-60.9364352,ChIJ74hpSz8TtZURYopCvSCNiF0
Convento Cristo Rey,church,30,-31.4433325,-60.9363442,ChIJJTqHSz8TtZURwDH444kvPBM
Hospital Vecinal,hospital,3,-31.4425477,-60.9367804,ChIJzwLRVEcTtZURC8sf4zPyy7M
Sies107 Esperanza,,0,-31.4423554,-60.9369683,ChIJ32yVj5ATtZURDtZkNNwrI7k
Capilla "Nuestra Señora del Rosario",,1,-31.4415473,-60.9365185,ChIJOTlrrG8TtZURMvxU8jwtkQA
Hospital Samco,hospital,20,-31.442315,-60.9362419,ChIJ-YZhqkATtZURE7ljl94CyKo
De Salud,,0,-31.4421632,-60.9360498,ChIJ14WwqUATtZURZEQgZIwZlU4
Carniceria El Gato Y Minimercado de Gross Anibal Rafael,,2,-31.4421189,-60.9360274,ChIJt9urqUATtZURAsd9LTne4WM
Motomecanica R|46,car_repair,1,-31.4550582,-60.9355218,ChIJ8W5kdiMTtZURFgc4pAwfDLk
Amsafe Delegación Las Colonias,,7,-31.4555767,-60.9355367,ChIJcxhgmSMTtZUReLwjP8PEsKU
Crazy Car's estética vehicular,car_repair,0,-31.4556067,-60.9354087,ChIJTe7g-toTtZURk7IGbPQYunM
Crazy Car's,car_repair,0,-31.4555973,-60.9353226,ChIJPe2fa-ATtZURHaQguIfJuqA
KAIROS GYM,gym,0,-31.455907,-60.9354957,ChIJoV0f9GkTtZURghmRKw_5CnY
Sociedad Colombofila Mensajeras De Esperanza,,12,-31.4559311,-60.9353857,ChIJ7fE8lyMTtZURAI3mMDc1Xwc
Casa de Comida la Gourmet - Envios A Domicilio,restaurant,54,-31.4551445,-60.934905,ChIJgc31oCMTtZURjwxjQVoEXNU
BYH Ingenieria SRL,,1,-31.4532159,-60.9354662,ChIJ3cFKBT0TtZURLUzdxpC4u_8
ByH Ingenieria SRL,,1,-31.4532153,-60.9354664,ChIJdZxrxjgTtZURFPQxITvmBXw
ENFERMERIA NORMA,,1,-31.4541492,-60.9355136,ChIJuWccP6YTtZURXSgig2n53ME
DyM,shopping_mall,21,-31.4542525,-60.936028,ChIJy4D0ZiMTtZUR_1jP74QplBc
D&M Servicios Electromecanicos S.R.L,,12,-31.454314,-60.9359831,ChIJCVN5ZiMTtZUR8Zuq34fM-Go
Iglesia Ortodoxa San Jorge,church,2,-31.4541895,-60.9352211,ChIJgYuQbCMTtZURnk5wYBY9Qmo
Bicicleteria "San Agustín",,0,-31.4540106,-60.9349523,ChIJnXHx4CATtZURDoFM62c6k90
Centro de Acondicionamiento Físico,gym,86,-31.4537902,-60.934887,ChIJE76bFSMTtZURmr6E3tt_J2c
AG PELICULAS,,0,-31.4545042,-60.9351008,ChIJHw47FOkTtZURlz7kKCHcFOk
Farmacia Donalisio,pharmacy,0,-31.4530982,-60.9359858,ChIJA9y4ASQTtZURhpYW5HHESjM
Casa De Bauti,,0,-31.4495109,-60.9359258,ChIJu_a3_wcTtZURM1wiILUA8Uo
Clinica Esperanza del Grupo Santa Fe,doctor,11,-31.4500158,-60.935679,ChIJE-sfiTwTtZURGRgU0TCpGZM
Gasparini Ricardo,car_repair,7,-31.449458,-60.9360017,ChIJDfb30xcTtZUR8JupYkB5kSY
Ortopedia Y Traumatología,,0,-31.4500887,-60.9356793,ChIJua83iDwTtZURoK4a3BbD_oY
D L Garbe Computacion,,47,-31.4477942,-60.9350866,ChIJDfb30xcTtZURfOXLd4pC2fQ
Cooperativa de Vivienda 8 de Septiembre Ltda,,1,-31.4476024,-60.9351218,ChIJCbCAaT0TtZURVd640jAbepA
Fundacion Fundar Caminos,,0,-31.448573,-60.9358662,ChIJ31iDDTwTtZURl8zoyyBnAec
Veterinaria Amigos,veterinary_care,5,-31.448573,-60.9358662,ChIJy-GDDTwTtZURSMBiomnSB-Q
Dra. De Censi; Claudia Gloria & Dr. Quintabani; Carlos Alberto,dentist,3,-31.4485919,-60.9359297,ChIJFWyfDTwTtZURwAGSvcSLWQI
Panaderia la Alianza,bakery,404,-31.4487017,-60.9357798,ChIJ3cFKBT0TtZURQwNN06Qpg4I
Dietética Naturalmente,grocery_or_supermarket,7,-31.4484132,-60.9362079,ChIJyXKUcfcTtZURt8nyFtv-LYY
VIÓPTICA,,22,-31.4480241,-60.9352427,ChIJcdPkJHkTtZURMcvB0QQ4Og4
Arcos. Consultorios Integrados,,30,-31.4478017,-60.935341,ChIJr6MJGTwTtZURKLYSJTXbzIQ
Guerin Milagros,,0,-31.4468449,-60.9356441,ChIJH_4dpT4TtZURfBw8cqoPWfA
Aane Asociacion de Ayuda A Ni�os Especiales,,7,-31.4468871,-60.9355309,ChIJ-4NhpD4TtZURzRRG2yM5ea8
Kiosco Gabi,,0,-31.447158,-60.9357432,ChIJMVTmZs8TtZURSg1F_pFHBp4
VILLA PERLA,home_goods_store,0,-31.4467215,-60.9359677,ChIJf2KFqVUTtZURaJnvEtyaNyg
EDIFICIO MILENIUM,,0,-31.4474379,-60.9353737,ChIJb8TIVhITtZURARgb2ya5Pcw
Sanatorio Avenida SA,hospital,11,-31.4475652,-60.935667,ChIJX6FdV_0RtZURdK8BEVV2gxA
Dr. Jose E. Dominguez,doctor,1,-31.4476151,-60.9354726,ChIJSR_pGzwTtZURdfGuJ4qOH0I
SUPERLORITO AVENIDA CORDOBA,supermarket+grocery_or_supermarket,78,-31.4476732,-60.9356075,ChIJQZVqhHsTtZURw6ybUsWQCUc
Innova Inmobiliaria,real_estate_agency,9,-31.4477132,-60.9358836,ChIJTUhWAzwTtZURkH5QV-Cq3Gw
Gelchi,,429,-31.446104,-60.9351694,ChIJ19vIvz4TtZURg5ukyfBMpK0
Hogar Virgen de Los Milagros,,0,-31.4459916,-60.9354907,ChIJdctOxz4TtZURXuuXwYco5bU
Escuela Tecnica Prof N°2027 J M Estrada,school,0,-31.4460582,-60.9352291,ChIJDfb30xcTtZURMLJNSwzPxP8
Metalúrgica Breques,,2,-31.4456449,-60.9353022,ChIJ-4nRwz4TtZUROVzNqeIBiFA
Mutual Club Atletico Sarmiento,,9,-31.4450254,-60.9353819,ChIJP9Wj3j4TtZURzFC50U58EAQ
Club deportivo bochas barrio rivera,bar,0,-31.4454001,-60.9354033,ChIJFUDlbxUTtZURNjAVlaJKhJU
SHADDAI,beauty_salon+spa,1,-31.4452152,-60.9360857,ChIJiQ18uhwTtZURg3UpLCp9SYU
Asadores Esperanza,home_goods_store,1,-31.4449951,-60.9357279,ChIJndNgO5gTtZUR10hxLIFp3z4
Balboa cut & clothes,hair_care,21,-31.4449847,-60.935615,ChIJK0uZ1vwTtZURShy-K8niP9c
Belkys. Productos Y Articulos De Limpieza,home_goods_store,1,-31.445023,-60.935393,ChIJ9Yqj3j4TtZURPehoK95Vhc4
Rebel Cut,hair_care,8,-31.4451512,-60.9349846,ChIJFQAho4ETtZURQqz9xI8qdyM
Escuela N110 " 11 de Septiembre" Santa Fe,school,0,-31.4442093,-60.9357955,ChIJ6Z5QJT8TtZURvMw8cIpYCvQ
E.E.T.P. № 455 “Gral. Don José de San Martín”,school,11,-31.4441441,-60.9358888,ChIJG-bT1z4TtZUR8XGVz2RMKI0
Esc. № 2030 "SURCOS DE ESPERANZA",school,0,-31.4438945,-60.9356793,ChIJBQOdAz0TtZURPIUk_rty6aw
El Techo de la ENET,school,0,-31.444243,-60.9352045,ChIJ16rKqjETtZURks7qWrOXI3s
Deppeler,,0,-31.4435312,-60.9355677,ChIJDfb30xcTtZURsIRE_eKizX0
Piletas Climatizadas,,0,-31.4446865,-60.9349871,ChIJi7o-4D4TtZURIjDLbDeElUg
Cass UNILSE,,0,-31.4432352,-60.9355686,ChIJQd7rRj8TtZURczdkak8mtv8
Lavaderos De Autos En Esperanza,car_wash,0,-31.4431868,-60.935415,ChIJ0ys4QT8TtZUR6_EXRAT1-QY
El Descanso,,2,-31.4431506,-60.9356405,ChIJNa8qRD8TtZURxQU8VRd4ygA
Mil Aromas,clothing_store,7,-31.442193,-60.9355672,ChIJC3eDZj8TtZUR228m2Ea6bRg
Farmacia "HILAS",pharmacy,2,-31.4420726,-60.9351182,ChIJCZ4ZSCUTtZUR6cYGK5VA4KI
Lavadero Gato Negro,,0,-31.4432765,-60.9350295,ChIJmyq6aj8TtZURc7U-aYhMDw8
La Torre,,4,-31.4424995,-60.9346781,ChIJH_TCZT8TtZURBsyJ0izClgI
Expreso Rb,,0,-31.4424266,-60.9346921,ChIJK0wtZD8TtZUR9tBEqxr1uuk
Metrans SRL,hardware_store,208,-31.4411381,-60.9367493,ChIJDfb30xcTtZURUuDzQPZD4ps
Panadería Janssen,bakery,43,-31.4413545,-60.9357826,ChIJQ7p6ukATtZURpGgG6Xkqnjc
Parador 70,bar,3,-31.441285,-60.9358557,ChIJhZx6iZUTtZURyZbpC9QJmPw
Milenium Gym,gym,25,-31.4414269,-60.9357805,ChIJ8efaIwgTtZURZYKZfA28AQw
Plegados Esperanza Sa,,0,-31.4411877,-60.9357432,ChIJWfzyuUATtZURGlSf5hC0ZxU
FERMA S.A.,,1,-31.4409789,-60.9359981,ChIJV2rjykATtZURm4y-0kVHRRk
LA REGIONAL COMBUSTIBLES S.A,gas_station,1,-31.4409427,-60.9359862,ChIJxau2TxwTtZURytUmmZ59qhc
Cinthia Modas,clothing_store,68,-31.4408603,-60.93566,ChIJnxiBx0ATtZURQCe-IjvVF3I
Turismo Don Juan,,0,-31.4408266,-60.9356488,ChIJ0Tedx0ATtZURZgBZ-OjyKMQ
Leurino Y Negro Combustibles SRL,gas_station,1,-31.4413561,-60.9350533,ChIJbfz5l0ATtZURJzSjzaCxn5M
ALTO ELEVACIONES SRL,,1,-31.4413597,-60.9350521,ChIJcdtR-HYTtZURTavJ8nSyIh4
DOS HACHE · Almacén de quesos; fiambres y más.,grocery_or_supermarket,0,-31.4411147,-60.9363665,ChIJh-1mfvcTtZURKdTLC69rhnI
H&H,grocery_or_supermarket,24,-31.4411477,-60.9364766,ChIJXQmdtUATtZURoEHR85E-Gxc
LA ESTANCIA,,24,-31.4415027,-60.9348217,ChIJhSsHYvETtZURMYCVN41Gibs
Planofot,,0,-31.4415027,-60.9348217,ChIJFVpzmUATtZURZ-y8u4aYFrs
Los Gurises Regionales,,4,-31.4411276,-60.9366285,ChIJn22hSkcTtZURXgo5wBDhXFQ
Kern Automotores,car_dealer,5,-31.4408226,-60.9366555,ChIJqQCZNEcTtZURWHO4Mg9QOxE
Pocera Oeste - Servicio Atmosferico,,5,-31.4551643,-60.9343696,ChIJN3-gqCMTtZUR5C0EnoayVO4
Despensa,grocery_or_supermarket,0,-31.4560863,-60.9342272,ChIJHV5NyXATtZURNrvA2IqMpoM
Pruvost Norma Cristina Odontologa,dentist,7,-31.4558425,-60.9344392,ChIJzXmtuyMTtZURVR7otZsl-_M
Consultorios Emmi,doctor,8,-31.4557904,-60.9344329,ChIJ0z9cuiMTtZURwuzMqR03lQM
Daniel Alberto Heredia,,1,-31.4564571,-60.9347599,ChIJzfbTwCMTtZURB6f7WT3jA-k
Credifin Express,,40,-31.4561705,-60.9337416,ChIJpeo6NSITtZURdXtaN1ZWHhI
ferreteria el milagro,hardware_store,18,-31.4553606,-60.9343741,ChIJ9w6IpSMTtZUR6IVvBRtOJwA
Raíces Consultorios Interdisciplinarioa,doctor,1,-31.4566308,-60.9347832,ChIJo-lZwSMTtZURtdXrZdfV9n8
Anticuario Anita,furniture_store+home_goods_store,3,-31.4555259,-60.9334218,ChIJ2VCFlosTtZUR5fC4GyH2jV4
Plaza De los Inmigrantes,park,52,-31.4565296,-60.933383,ChIJXS4NyAQTtZURdCHqOW1nwyM
TIME SAIC,,1,-31.453867,-60.933936,ChIJQ_0ZHCMTtZUR73cSaobo0i4
Autoservicio Esperanza,,141,-31.4550668,-60.9342232,ChIJV8J6qCMTtZURnLIOgyYR-ew
Glutal SA,convenience_store,32,-31.4538763,-60.9338613,ChIJ_cj8Z5wTtZUR_JZYtVnyHao
Casa Gutmann SRL - Articulos Para el Hogar,school,27,-31.4547784,-60.9333408,ChIJBy1NAz0TtZURHeMHd4tYBcs
Lawn Tennis Club Esperancino,,245,-31.4449432,-60.9345241,ChIJNwm44D4TtZUR7qJ1ZkAoKj4
Jines,home_goods_store,3,-31.4453167,-60.9342162,ChIJDfb30xcTtZURrOgrtPcH92A
Un mundo de frutas y verduras.,grocery_or_supermarket,2,-31.4440356,-60.9344569,ChIJXZv_YBITtZURTz9h_pdojNM
Dodecaedro,hair_care,7,-31.4434506,-60.9341111,ChIJMVlv8XITtZUR3PPdjtwYPi8
Vieja Fonda Restaurant,restaurant,543,-31.4430655,-60.9344657,ChIJDfb30xcTtZUR8le5xGL8_ow
SOMA Consultorios Integrados,,10,-31.443398,-60.9336032,ChIJYyHyTvgTtZUR4Bmk_9CEn_I
Ferretería Saavedra,hardware_store,5,-31.4427559,-60.9344955,ChIJu36IAhkTtZURlmDuGbtSueI
Mosaiko's,home_goods_store,107,-31.4420242,-60.9341666,ChIJBy1NAz0TtZUR-DYNB5sxOH4
Estudio Moreno,accounting,0,-31.44199,-60.9341312,ChIJT_ZOfD8TtZUR8QsiFyeYG_8
Peugeot,car_dealer,6,-31.4417947,-60.9334552,ChIJN97_gD8TtZURK6Nok53_0qE
Bocco Auto Motores,car_repair,13,-31.4418822,-60.9333045,ChIJbftRgT8TtZURm2rp_iWvk5M
Casa Shanti,,3,-31.4547717,-60.9323341,ChIJQxi3XSITtZURjCKM1TEfk4E
Veterinaria "Artemisa",veterinary_care,5,-31.4553768,-60.9332787,ChIJK6sKTiITtZUR8AdI-_7edOs
Polleria El Alemán,shopping_mall,9,-31.4549748,-60.9331316,ChIJ1zxvUZ0TtZURCVbskbXrWuI
Donnet Lavarropas,,0,-31.4549171,-60.9331432,ChIJZ_jNViITtZUR0G1kyu5vfis
Casa Federico Foos,car_repair,12,-31.4553403,-60.9334668,ChIJDfb30xcTtZURNMALnNnqoiQ
Lic. Ps Antonela Cosqueta,,0,-31.4551337,-60.9323488,ChIJw6jCQiITtZURxHLtWmDrS4E
Club Union Bochas,bar,19,-31.45575,-60.9325412,ChIJP3WrQCITtZURBErMwXkIOSo
Vidrieria Oeste,,8,-31.4547624,-60.9330815,ChIJ02hqViITtZURXR5yQ-gbSgM
OSPSA Obra Social del Personal de la Sanidad Argentina,,1,-31.4547219,-60.9328907,ChIJ1xEf9qgTtZURDLKVhbkPDxE
Vivero Onda Verde,shopping_mall,116,-31.4556407,-60.9323009,ChIJ_6FmQCITtZURZkuK7K5DbVg
Paz Intimates,clothing_store,0,-31.4546719,-60.9328117,ChIJfZG3218TtZUR3oU4aPgoybQ
MyM NellRoss - Fangoterapia,beauty_salon,29,-31.4549217,-60.9322384,ChIJDZRvXSITtZURzFYjlp0d42Q
Carnicería EL AMANECER,,11,-31.4546927,-60.9322308,ChIJe2DuLXYTtZUR5FECFXvRVNs
Gustavo Pomar Fotógrafo Profesional,,4,-31.4541989,-60.9331241,ChIJCwsj-iITtZURW_qwDeta6x4
Compuarticulos,,8,-31.4540109,-60.9329765,ChIJNemW-iITtZUR3fDeGqNN9Zg
Rita Peressutti Podóloga,doctor,0,-31.4543001,-60.9331705,ChIJlXVh-SITtZURT-3Hu5aXzkU
Danseur,,1,-31.4544153,-60.9330624,ChIJOaqt-SITtZURMfJW84e5OtA
Fiesta Mania ¨Cotillon¨,home_goods_store,0,-31.4544769,-60.9321661,ChIJ35VkYCITtZURf6DFVYdxd8Q
Emeve,home_goods_store,41,-31.4543766,-60.9321922,ChIJW7VPYCITtZUROUKPuWAx85M
Estudio Donnet,accounting,0,-31.4438048,-60.9327605,ChIJnU4xsj8TtZURnF4VKLA2NlE
Pianetti Arquitectura,,0,-31.4439287,-60.9322232,ChIJV3Nb65cTtZUR9H-HJHKWVak
Rio Mas seguridad privada,,3,-31.4441243,-60.9318352,ChIJTWZLNyETtZUREgSKryTJcXw
Campos de Violeta Articulos de Limpieza,home_goods_store,4,-31.4428164,-60.9334263,ChIJgbon0PMTtZURVRStYcatZDE
Panaderia Dulce tentacion,bakery,6,-31.4419665,-60.932792,ChIJd-FE4U4TtZURXxi4b7KVwf8
Sadesa SA,,0,-31.4418764,-60.9324774,ChIJzyqfjT8TtZUR2Ghkal3cUrA
JT Distribuciones,,1,-31.4558334,-60.9319533,ChIJUd5aFCITtZURt4Mj1MEH0go
BIG FUN,,114,-31.4554695,-60.9314265,ChIJedWtciITtZURm9XZ8sTFf48
H&H Automotores,car_dealer,20,-31.4559471,-60.9306782,ChIJAX2IByITtZURxLo33DZ8g4I
Correo Argentino - Sucursal Esperanza,post_office,9,-31.4563,-60.93258,ChIJDU92OyITtZUR3yxrNnmlWc8
CEDIG,,0,-31.4556626,-60.9319126,ChIJK_Fj__YTtZURRNc_uNoUe8E
Casa Garbe,,0,-31.4557739,-60.9320716,ChIJmbQOFSITtZURY9zsjDgzkZo
Centro de Kinesiologia y Fisioterapia "SANNA",,1,-31.4560629,-60.9308894,ChIJYR-Z1eITtZURJzTif4cSalI
GPS Taller - Ferrarini Servicio Mecanico,car_repair,10,-31.4561767,-60.9307189,ChIJ393ZqRgTtZURINgYI39LY88
Heladería "Nuestros Sabores",,306,-31.4565802,-60.9321327,ChIJW_7QGCITtZURPBRIdoz2rJE
Snoopy pet shop,pet_store,3,-31.456178,-60.9325619,ChIJFeZD_UETtZUR-U5_AoD4_bg
Peluqueria Unisex Mar-Es,hair_care,2,-31.4547938,-60.9320177,ChIJF0sCZyITtZURv4X28cHvFHc
JR Servicios Esperanza,,1,-31.4545831,-60.9320801,ChIJVVwXeQ8TtZURhX-Ckuq2PGg
Aglieri Servicios,,4,-31.454997,-60.931151,ChIJ1ZA5cSITtZURlGEiduL6gaQ
Estudio Jurídico Marcuzzi & Asociados,lawyer,20,-31.454497,-60.930527,ChIJF2fTgxgTtZURweSMh0xqKjE
La Fabrikita Salones De Fiestas,,70,-31.4446906,-60.9313469,ChIJ1dSdJD4TtZURWZQtXWCgXQE
Aberturate - Aberturas de aluminio.,,1,-31.4450064,-60.9311626,ChIJQ6OGTQUTtZURmh9Ul5Jk72s
Empresa Constructora Pilatti,,11,-31.4450792,-60.9311677,ChIJQzbBGD4TtZUR29oYIy1yAA0
Brilla Indumentaria,clothing_store,15,-31.4445268,-60.931003,ChIJCZxYvOUTtZURfqMw-3xl4rM
Prqueños chefs,school,0,-31.4441145,-60.9314014,ChIJQey-eBoTtZURVvSp9A-xBmI
Asociacion Suiza,,54,-31.4441964,-60.9308366,ChIJm1VsKD4TtZURShnKTxZSIo0
Yoga Analía Klug Yoga Vital,gym,1,-31.4441534,-60.9308802,ChIJV8bYE_kTtZURY7w-1MUx-lg
Ps Estudio Informatico SH - Equipos E Insumos,,28,-31.4431535,-60.9306608,ChIJ7cRjfhUTtZUR10BiC548oFY
Reparación De Lavarropas En Esperanza,,0,-31.4431986,-60.9315106,ChIJy8TCzz8TtZUR1gAXcq8eUcg
La Fabriquita,,2,-31.4438014,-60.9308571,ChIJKznN4-UTtZUR9C2AWd6c9ag
UNIRE MUNICIPALIDADES,,0,-31.4431535,-60.9306608,ChIJse5mByETtZUREeHPJnkdzVU
Casa Engler S.R.L.,,1,-31.4426101,-60.9314724,ChIJV_C1HfkTtZURcmuqIWSINvs
Casa Engler de Engler Victor Hugo,supermarket+grocery_or_supermarket,123,-31.4426061,-60.9315873,ChIJDfb30xcTtZURRiax7c1_93E
ALECoL _ Asociación del Litoral de Entidades de Control Lechero,,10,-31.4561,-60.930362,ChIJ6ZHMrhgTtZURxtpgN-2X_LY
Agencia Via Libre,,0,-31.4567146,-60.9307616,ChIJf8_Z_yETtZUR3fOMZMMxgME
Itec,school,3,-31.45631,-60.9295153,ChIJg6XNtBgTtZUR9nRt-41XdIU
Vaudagnotto,,0,-31.4559438,-60.9303647,ChIJJ2hLrxgTtZURzNu_YgAVJoM
Aberturas Femar,,6,-31.455107,-60.9302751,ChIJ3cFKBT0TtZURrAd8a5FuLyY
Ride Tuning Cars,,14,-31.4557747,-60.930451,ChIJSwWfLDwTtZURWy1revfTWd8
Autoservicio Buena Vida,convenience_store+grocery_or_supermarket,0,-31.4552538,-60.9300843,ChIJm0dZYBMTtZURrdj1UqpZHoM
MAC motos,car_repair,1,-31.4551691,-60.9300527,ChIJKe9z6NoTtZURi6y1-DshDwA
Centro Industrial; Comercio y Afincados de Esperanza -CICAE-,,4,-31.4554021,-60.9303251,ChIJvaO8oxgTtZURGdxAcTJe-WY
EPE,,0,-31.4551009,-60.9300916,ChIJ1Ti2XDwTtZURuRwO_KEdYpk
Liceo Municipal,school,2,-31.4556181,-60.9299829,ChIJea0bsBgTtZURJC5mfE7tuY8
Consultorios 9 de Julio,hospital,10,-31.4551443,-60.9306749,ChIJBQOdAz0TtZUR3Smg7sn1-hw
Andrés Lopez - Odontólogo,dentist,0,-31.4552058,-60.9307054,ChIJQWCjjSETtZURXh7PrajAwrI
Castel Bar,bar,1,-31.4547745,-60.929761,ChIJkX1rQ4YTtZURa8j3gvJCcFY
Farmacia Favarin,pharmacy,4,-31.45458,-60.9298775,ChIJkSD8vyQTtZURmIwVzyzojdQ
Bellsiluet - Centro Médico de Nutrición y Estética,spa,0,-31.4443011,-60.9301421,ChIJ1Wr5jRUTtZUR_ZM9XN33VLo
Yoga On-line!!! https://youtu.be/qiY-c2jG9i4,gym,1,-31.444137,-60.9307321,ChIJ0dleKD4TtZURvouqcmmZpQc
La Esquina Suiza,bar+restaurant,275,-31.4436101,-60.9298053,ChIJK05inBUTtZURIuRYWkosHOo
Plenty Dormitorios - Colchones Y Sommiers,furniture_store+home_goods_store,10,-31.4446905,-60.9292952,ChIJvUYjwBUTtZUROST0YSfQ1zg
Grandes Gardenias,clothing_store,0,-31.4441306,-60.9301161,ChIJjYW8fFUTtZUR30V5u016S4s
Fibro Arte Artística Y Manualidades,,0,-31.4441496,-60.9301172,ChIJmejFjxUTtZURLYhRRNYtjc0
Asociación Siuza Guillermo Tell,museum,1,-31.4439998,-60.9300015,ChIJE2SFNrcTtZURowlYqENqJ3Y
Calculin,,0,-31.4442448,-60.9301192,ChIJ_RE2jhUTtZURjEHrdCnavSw
Escuela Normal Nº 30,school,7,-31.4440746,-60.9298498,ChIJT2UplxUTtZURyPhccqMzbaY
Estudio Iucci - Sueldos Leyes Sociales E Impuestos,,1,-31.4443406,-60.9304729,ChIJ8dUeiRUTtZUR-cKbal5LMQI
Integral,,0,-31.4445081,-60.9302151,ChIJmz_KjhUTtZUR4B-OH0m9lKc
Peluquería Alcides,,0,-31.4445306,-60.9299467,ChIJGzqM54ETtZURx3AEo2gnv3M
Ferretería Patagonia,hardware_store+locksmith,74,-31.4434598,-60.9298997,ChIJxwROnBUTtZUR8YfzSlB1FkY
Arquitectos asociados,,0,-31.4434231,-60.9301326,ChIJc9CRGYoTtZUR_9HV3OdpXvc
Costello,clothing_store,0,-31.4446057,-60.9296137,ChIJGRx4SBMTtZURk7CHkNYW0v4
Loteria De Santa Fe,,2,-31.4426015,-60.9301677,ChIJl9CrZRUTtZURnXkOxvy93P0
Delset Gnc,,0,-31.4427162,-60.9303142,ChIJRyCXZBUTtZURjPS5sYKNuRw
Ludueña muebles de Algarrobo,furniture_store+home_goods_store,13,-31.4424797,-60.9303374,ChIJ6xypZhUTtZUR5xSZn2HCIe0
Shell,car_repair,14,-31.4426372,-60.9305131,ChIJTQqDRvUTtZURYsmtGDYmCnc
GNC,gas_station,61,-31.4425893,-60.9305174,ChIJOR1AHUATtZUR7RwBMQ-Ivys
Eduardo J Benz Automotores,car_dealer,29,-31.4426656,-60.9296659,ChIJKer7cRUTtZUReI6qyTxBScU
Alles Möbel,furniture_store+home_goods_store,0,-31.4428065,-60.9296668,ChIJPSuCcRUTtZURdJQaDtU6v0Q
Pañalera Baby Pooh,clothing_store,5,-31.4427921,-60.9294805,ChIJay-GWQwTtZURXlUhRRlDOk4
Cyber Espacio,,1,-31.4430975,-60.9296493,ChIJOzWddhUTtZURJDbr0N60UXk
Farmacia Althaus,pharmacy,2,-31.4429262,-60.9295097,ChIJ38uTcxUTtZURsYoq-q4aYjE
SADESA SA,,14,-31.4421254,-60.9302011,ChIJ1Ut-ZxUTtZUR5KJ0yVYaZB4
Doning Amoblamientos,furniture_store+home_goods_store,0,-31.4431892,-60.9296776,ChIJlWJwdhUTtZURMMCl5mXH3eU
Universo Pinturerías,home_goods_store,110,-31.4426222,-60.9293891,ChIJ14-HbRUTtZURZjAiNRPRrA8
Talabartería marroquinería,home_goods_store,0,-31.4426887,-60.9292115,ChIJRd9qJe0TtZURwzCr0DWt76o
Perforaciones En Esperanza,,0,-31.442828,-60.9292171,ChIJncqkDBUTtZURJKfy2i3Z4ho
Maxikiosco Doble W,,3,-31.4435144,-60.9296784,ChIJD5VHissTtZURhrryHV1mu5o
LAVARMIN,,4,-31.4428652,-60.9290835,ChIJgfBxCxUTtZURalNwbF1ASXE
cokidolly,book_store,21,-31.4574909,-60.9284754,ChIJlToW88kTtZUR18o3OS6J0Lw
Libreria Coqui Dolly,book_store,10,-31.4575075,-60.928481,ChIJYSViFrkTtZUROCnHa-mVMSg
Regional ASSAl Esperanza,local_government_office,1,-31.4560449,-60.9284052,ChIJ10hBPh8TtZUR0RD1HHkYKmI
La ROCA innovando el reciclado,,0,-31.4562952,-60.9289396,ChIJHdLDXEwTtZURrT_YMNflUa8
Sinergia Pilates,gym,6,-31.4556416,-60.9285647,ChIJ9WUrapwTtZURAD0s9LizMDk
Digital Lab,,0,-31.4563743,-60.9290369,ChIJudNeBVwTtZURDg6rUceMuc0
Kuan Rotulados,,0,-31.4556573,-60.9282315,ChIJZa1Q0RgTtZURsu9JFxvs3wY
Uom Seccional Santa Fe Filial Esperanza,,5,-31.4558648,-60.9278571,ChIJBQOdAz0TtZURNZu1a8rjhF8
Bomberos Voluntarios Esperanza,fire_station,8,-31.4441924,-60.928816,ChIJBQOdAz0TtZURTYhc6ZMg4QM
Giordana,,0,-31.4449388,-60.9276804,ChIJ22_9LBQTtZURDqfgdNQkJX0
Sr. Miyagi,,0,-31.444811,-60.928931,ChIJVwLJaJ0TtZURECXQ6zBJ8ak
Liliana,dentist,0,-31.444972,-60.9290521,ChIJFTu7QBoTtZURXPcH_5Ie6rg
Pancho king,restaurant,158,-31.445098,-60.929058,ChIJp-otwxUTtZURcTyU9p4wblo
Lulú Indumentaria,clothing_store,3,-31.4450187,-60.9291618,ChIJKxruwhUTtZURB7RSg984htk
HOOD LOOK barberia,hair_care,1,-31.444877,-60.9292396,ChIJf29K02ETtZURvAS_R2McyNs
Carnes 2000 SA,,8,-31.4447747,-60.9292552,ChIJBy1NAz0TtZURbCLVTxsJLC8
Kiosco Friendly,grocery_or_supermarket,1,-31.4450793,-60.9291803,ChIJR9Y3DlMTtZURw5zNynmHhng
AS Ecografias Esperanza,,0,-31.4449593,-60.9292846,ChIJq5ozY_ITtZURAIEMhuwLSjY
Centro Medico San Martin,hospital,0,-31.4449593,-60.9292846,ChIJOdNYwhUTtZURj3muYY2vglk
Enamorate Ind,clothing_store,0,-31.4451992,-60.9291126,ChIJtb-8PVgTtZURRSZ574b-vQ0
GNOSIS - AGEACAC,,2,-31.4446113,-60.9281012,ChIJdXTXKjgTtZURNhPQxhelcss
Decorativa,,0,-31.4452579,-60.9282872,ChIJL_HK1hUTtZURbkLRg2jT47Q
Transportes Esperanza,,12,-31.4450886,-60.9281178,ChIJBw7G0xUTtZURgoAOl0Y_ZpI
Casa Aqueney,,115,-31.4450861,-60.9293135,ChIJcRS2whUTtZUR8EhLs0XGdro
Acastello & Rosso,,0,-31.4452623,-60.9291873,ChIJOWhz3RUTtZUR6QeX1LzzzzQ
TEMPY,,6,-31.442723,-60.928979,ChIJkeo9DBUTtZUROIN9CoAO97Q
Gimnasio Constructivista,gym,7,-31.4433684,-60.9287837,ChIJt_uPphUTtZURrXKrGuanRII
ARCO IRIS verdulería,grocery_or_supermarket,2,-31.4432777,-60.9287578,ChIJ-_KJ8ocTtZUR2SUgRklfAzc
Mutual del Club Atlético Juventud Unida Filial Esperanza,,27,-31.4437771,-60.9287822,ChIJq5OZ13oTtZURwGG0dJ1qwRg
Super Mayo,supermarket+grocery_or_supermarket,255,-31.4430175,-60.9286467,ChIJ59lpCBUTtZURyl9xRTmgzVY
Panadería La Victoria,bakery,231,-31.4438307,-60.9287985,ChIJo0jbuhUTtZURjDlAIHxNA2A
Industrias Carnes,,0,-31.4430453,-60.9284627,ChIJ3cFKBT0TtZURy0ZKGGFHC1s
Carnicería El Amanecer,grocery_or_supermarket,2,-31.4430419,-60.9284657,ChIJEVOweMATtZURVccLxCDehUE
PETRO SANTAFESINA S.A,gas_station,0,-31.4428565,-60.9286093,ChIJMfGLf4ATtZURRK6g70SKyMA
Kasan Refrigeracion,electronics_store,2,-31.4437342,-60.9292739,ChIJC8CCohUTtZURo9gsv6gez7w
Grita Masalto,,0,-31.4431229,-60.9281144,ChIJA6LKqxUTtZURSuNqDE_OaP4
Central de Control y Monitoreo,local_government_office,1,-31.4435816,-60.9293869,ChIJZfFVPbcTtZUR5vLjozZpBY4
Básicos; Productos para el Hogar,,0,-31.444001,-60.9285529,ChIJm4eCsBUTtZURaDvEmqRCqIs
Estudio Juridico Lucas J.Cecchini,,0,-31.4438261,-60.9281827,ChIJty9fsRUTtZURJ2R_PeoGgGE
Parada de colectivos Esperanza lado Sur,gas_station,0,-31.44285,-60.928992,ChIJrSeD6m8TtZURbpWN_To0Znw
Hilos,,0,-31.4428651,-60.9283354,ChIJXYx4BxUTtZUR5ASmrP66S4M
